[{"title":"Madama Butterfly","created_by":"TicketMaster","category":"Arts & Theater","start_date":"2016-04-23T05:00:00.000Z","venue_name":"San Diego Civic Theatre","address":"3rd & B St.","city":"San Diego","zip":"92101","latitude":38.5439464,"longitude":-121.7447112},{"title":"Transparent Production Presents Andy Mineo","created_by":"TicketMaster","category":"Music","start_date":"2016-04-23T05:00:00.000Z","venue_name":"House of Blues San Diego","address":"1055 5th Avenue","city":"San Diego","zip":"92101","latitude":null,"longitude":null},{"title":"Deerhunter","created_by":"TicketMaster","category":"Music","start_date":"2016-04-23T06:00:00.000Z","venue_name":"The North Park Theatre","address":"2891 University Avenue","city":"San Diego","zip":"92104","latitude":33.9773265,"longitude":-117.3644548},{"title":"Mac Sabbath, the Kabbs, Kids In Heat, Shady Francos","created_by":"TicketMaster","category":"Music","start_date":"2016-04-23T07:00:00.000Z","venue_name":"Music Box","address":"1337 India Street","city":"San Diego","zip":"92101","latitude":32.719404,"longitude":-117.167835},{"title":"Strange Crew (Eric Clapton Tribute) / Matchbox Twenty Too (Matchbox 20","created_by":"TicketMaster","category":"Music","start_date":"2016-04-23T07:00:00.000Z","venue_name":"The Merrow","address":"1271 University Avenue","city":"San Diego","zip":"92103","latitude":37.45573390000001,"longitude":-122.1496975},{"title":"Say Anything, Mewithoutyou, Teen Suicide, Museum Mouth","created_by":"TicketMaster","category":"Music","start_date":"2016-04-24T04:30:00.000Z","venue_name":"House of Blues San Diego","address":"1055 5th Avenue","city":"San Diego","zip":"92101","latitude":null,"longitude":null},{"title":"Ellie Goulding","created_by":"TicketMaster","category":"Music","start_date":"2016-04-24T04:45:00.000Z","venue_name":"Viejas Arena at Aztec Bowl San Diego State University","address":"SDSU","city":"San Diego","zip":"92182","latitude":32.9797085,"longitude":-115.4875611},{"title":"71st Annual DMNHS Featuring Night of the Horse","created_by":"TicketMaster","category":"Sports","start_date":"2016-04-24T05:00:00.000Z","venue_name":"Del Mar Fairgrounds","address":"2260 Jimmy Durante Blvd.","city":"Del Mar","zip":"92014","latitude":32.97568340000001,"longitude":-117.2613476},{"title":"Dilated Peoples","created_by":"TicketMaster","category":"Music","start_date":"2016-04-24T06:00:00.000Z","venue_name":"The North Park Theatre","address":"2891 University Avenue","city":"San Diego","zip":"92104","latitude":33.9773265,"longitude":-117.3644548},{"title":"San Diego Gay Men's Chorus: California Dreamin'","created_by":"TicketMaster","category":"Arts & Theater","start_date":"2016-04-24T06:00:00.000Z","venue_name":"Balboa Theatre","address":"868 Fourth Avenue","city":"San Diego","zip":"92101","latitude":32.714329,"longitude":-117.161364},{"title":"ODIN DUPEYRON CONFERENCIA \"ESTO SE\"","created_by":"TicketMaster","category":"Arts & Theater","start_date":"2016-04-24T06:30:00.000Z","venue_name":"Spreckels Theatre","address":"121 Broadway","city":"San Diego","zip":"92101","latitude":37.795869,"longitude":-122.2765511},{"title":"Latin Flavor Productions Presents: Orquesta Tabaco Y Ron","created_by":"TicketMaster","category":"Music","start_date":"2016-04-24T07:00:00.000Z","venue_name":"Music Box","address":"1337 India Street","city":"San Diego","zip":"92101","latitude":32.719404,"longitude":-117.167835},{"title":"Jagged Lines / Mario Esteban and the Blessed Hellhounds / Phantom Diss","created_by":"TicketMaster","category":"Music","start_date":"2016-04-24T07:00:00.000Z","venue_name":"The Merrow","address":"1271 University Avenue","city":"San Diego","zip":"92103","latitude":37.45573390000001,"longitude":-122.1496975},{"title":"Madama Butterfly","created_by":"TicketMaster","category":"Arts & Theater","start_date":"2016-04-25T00:00:00.000Z","venue_name":"San Diego Civic Theatre","address":"3rd & B St.","city":"San Diego","zip":"92101","latitude":38.5439464,"longitude":-121.7447112},{"title":"San Diego Gay Men's Chorus: California Dreamin'","created_by":"TicketMaster","category":"Arts & Theater","start_date":"2016-04-25T01:00:00.000Z","venue_name":"Balboa Theatre","address":"868 Fourth Avenue","city":"San Diego","zip":"92101","latitude":32.714329,"longitude":-117.161364},{"title":"The Who Generation with Heart Love Alive and Journeymen","created_by":"TicketMaster","category":"Music","start_date":"2016-04-25T04:00:00.000Z","venue_name":"House of Blues San Diego","address":"1055 5th Avenue","city":"San Diego","zip":"92101","latitude":null,"longitude":null},{"title":"Jonny Craig","created_by":"TicketMaster","category":"Music","start_date":"2016-04-25T04:30:00.000Z","venue_name":"House of Blues San Diego","address":"1055 5th Avenue","city":"San Diego","zip":"92101","latitude":null,"longitude":null},{"title":"Rupaul's Drag Race: Battle Of The Seasons","created_by":"TicketMaster","category":"Miscellaneous","start_date":"2016-04-25T06:30:00.000Z","venue_name":"The North Park Theatre","address":"2891 University Avenue","city":"San Diego","zip":"92104","latitude":33.9773265,"longitude":-117.3644548},{"title":"Holy Holy (David Bowie's Backing Band) W/ Guest Jessica Morgan, Schitz","created_by":"TicketMaster","category":"Music","start_date":"2016-04-25T07:00:00.000Z","venue_name":"Music Box","address":"1337 India Street","city":"San Diego","zip":"92101","latitude":32.719404,"longitude":-117.167835},{"title":"Lucid Season / No Girlfriends / Causers / Citrus and Katie","created_by":"TicketMaster","category":"Music","start_date":"2016-04-27T06:00:00.000Z","venue_name":"The Merrow","address":"1271 University Avenue","city":"San Diego","zip":"92103","latitude":37.45573390000001,"longitude":-122.1496975},{"title":"Live Nation Presents La Ley  Adaptacion Tour","created_by":"TicketMaster","category":"Music","start_date":"2016-04-28T05:00:00.000Z","venue_name":"House of Blues San Diego","address":"1055 5th Avenue","city":"San Diego","zip":"92101","latitude":null,"longitude":null},{"title":"Stenox / Krxspy Krxme / Kallahan","created_by":"TicketMaster","category":"Music","start_date":"2016-04-28T07:00:00.000Z","venue_name":"The Merrow","address":"1271 University Avenue","city":"San Diego","zip":"92103","latitude":37.45573390000001,"longitude":-122.1496975},{"title":"Live Nation Presents La Ley  Adaptacion Tour","created_by":"TicketMaster","category":"Music","start_date":"2016-04-29T05:00:00.000Z","venue_name":"House of Blues San Diego","address":"1055 5th Avenue","city":"San Diego","zip":"92101","latitude":null,"longitude":null},{"title":"The Tommy Mitchell Show / the Dirty Diamond / Sometimes Julie","created_by":"TicketMaster","category":"Music","start_date":"2016-04-29T07:00:00.000Z","venue_name":"The Merrow","address":"1271 University Avenue","city":"San Diego","zip":"92103","latitude":37.45573390000001,"longitude":-122.1496975},{"title":"SDSU Aztec Baseball vs. Nevada Wolfpack Men's Baseball","created_by":"TicketMaster","category":"Sports","start_date":"2016-04-30T04:00:00.000Z","venue_name":"Aztec Baseball at Tony Gwynn Stadium","address":"5500 Campanile Drive","city":"San Diego","zip":"92182","latitude":32.7721328,"longitude":-117.0726647},{"title":"SDSU Aztec Softball v Utah State","created_by":"TicketMaster","category":"Sports","start_date":"2016-04-30T04:00:00.000Z","venue_name":"Aztec Softball at SDSU Softball Stadium","address":"5500 Campanile Drive","city":"San Diego","zip":"92182","latitude":32.7721328,"longitude":-117.0726647},{"title":"Immortal Technique","created_by":"TicketMaster","category":"Music","start_date":"2016-04-30T05:00:00.000Z","venue_name":"The North Park Theatre","address":"2891 University Avenue","city":"San Diego","zip":"92104","latitude":33.9773265,"longitude":-117.3644548},{"title":"Kelly McGarry Presents","created_by":"TicketMaster","category":"Music","start_date":"2016-04-30T05:00:00.000Z","venue_name":"House of Blues San Diego","address":"1055 5th Avenue","city":"San Diego","zip":"92101","latitude":null,"longitude":null},{"title":"Cinema @ The Balboa: David Bowie's Ziggy Stardust","created_by":"TicketMaster","category":"Miscellaneous","start_date":"2016-04-30T05:00:00.000Z","venue_name":"Balboa Theatre","address":"868 Fourth Avenue","city":"San Diego","zip":"92101","latitude":32.714329,"longitude":-117.161364},{"title":"The Deep End, Damascus, & True Bass Present: Far Out w/ special guests","created_by":"TicketMaster","category":"Music","start_date":"2016-04-30T07:00:00.000Z","venue_name":"House of Blues San Diego","address":"1055 5th Avenue","city":"San Diego","zip":"92101","latitude":null,"longitude":null},{"title":"The Highwayman Show Celebrating Willie Nelson's Birthday","created_by":"TicketMaster","category":"Music","start_date":"2016-04-30T07:00:00.000Z","venue_name":"Music Box","address":"1337 India Street","city":"San Diego","zip":"92101","latitude":32.719404,"longitude":-117.167835},{"title":"End Thought / Imagery MacHine / Misc. Ailments / Flakes","created_by":"TicketMaster","category":"Music","start_date":"2016-04-30T07:00:00.000Z","venue_name":"The Merrow","address":"1271 University Avenue","city":"San Diego","zip":"92103","latitude":37.45573390000001,"longitude":-122.1496975},{"title":"SDSU Aztec Baseball vs. Nevada Wolfpack Men's Baseball","created_by":"TicketMaster","category":"Sports","start_date":"2016-05-01T00:00:00.000Z","venue_name":"Aztec Baseball at Tony Gwynn Stadium","address":"5500 Campanile Drive","city":"San Diego","zip":"92182","latitude":32.7721328,"longitude":-117.0726647},{"title":"SDSU Aztec Softball v Utah State","created_by":"TicketMaster","category":"Sports","start_date":"2016-05-01T04:00:00.000Z","venue_name":"Aztec Softball at SDSU Softball Stadium","address":"5500 Campanile Drive","city":"San Diego","zip":"92182","latitude":32.7721328,"longitude":-117.0726647},{"title":"71st Annual DMNHS Featuring Musical Freestyle","created_by":"TicketMaster","category":"Sports","start_date":"2016-05-01T05:00:00.000Z","venue_name":"Del Mar Fairgrounds","address":"2260 Jimmy Durante Blvd.","city":"Del Mar","zip":"92014","latitude":32.97568340000001,"longitude":-117.2613476},{"title":"Tribal Theory","created_by":"TicketMaster","category":"Music","start_date":"2016-05-01T05:00:00.000Z","venue_name":"House of Blues San Diego","address":"1055 5th Avenue","city":"San Diego","zip":"92101","latitude":null,"longitude":null},{"title":"Cinema @ The Balboa: This is Spinal Tap","created_by":"TicketMaster","category":"Miscellaneous","start_date":"2016-05-01T05:00:00.000Z","venue_name":"Balboa Theatre","address":"868 Fourth Avenue","city":"San Diego","zip":"92101","latitude":32.714329,"longitude":-117.161364},{"title":"Peter Sprague and Fred Benedetti","created_by":"TicketMaster","category":"Music","start_date":"2016-05-01T05:30:00.000Z","venue_name":"Pilgrim United Church of Christ","address":"2020 Chestnut Avenue","city":"Carlsbad","zip":"92008","latitude":33.162163,"longitude":-117.326303},{"title":"Hubbard Street Dance Chicago","created_by":"TicketMaster","category":"Arts & Theater","start_date":"2016-05-01T06:00:00.000Z","venue_name":"Spreckels Theatre","address":"121 Broadway","city":"San Diego","zip":"92101","latitude":37.795869,"longitude":-122.2765511},{"title":"Caravan 2 Cabo Doc Premier Ft. Mike Pinto","created_by":"TicketMaster","category":"Music","start_date":"2016-05-01T06:45:00.000Z","venue_name":"Music Box","address":"1337 India Street","city":"San Diego","zip":"92101","latitude":32.719404,"longitude":-117.167835},{"title":"Life In Color","created_by":"TicketMaster","category":"Music","start_date":"2016-05-01T07:00:00.000Z","venue_name":"Valley View Casino Center","address":"3500 Sports Arena Blvd","city":"San Diego","zip":"92110","latitude":32.7553041,"longitude":-117.2122211},{"title":"SDSU Aztec Softball v Utah State","created_by":"TicketMaster","category":"Sports","start_date":"2016-05-01T22:00:00.000Z","venue_name":"Aztec Softball at SDSU Softball Stadium","address":"5500 Campanile Drive","city":"San Diego","zip":"92182","latitude":32.7721328,"longitude":-117.0726647},{"title":"SDSU Aztec Baseball vs. Nevada Wolfpack Men's Baseball","created_by":"TicketMaster","category":"Sports","start_date":"2016-05-01T23:00:00.000Z","venue_name":"Aztec Baseball at Tony Gwynn Stadium","address":"5500 Campanile Drive","city":"San Diego","zip":"92182","latitude":32.7721328,"longitude":-117.0726647},{"title":"Pure Noise Records Tour: Hit the Lights with special guests","created_by":"TicketMaster","category":"Music","start_date":"2016-05-02T04:30:00.000Z","venue_name":"House of Blues San Diego","address":"1055 5th Avenue","city":"San Diego","zip":"92101","latitude":null,"longitude":null},{"title":"Chris Stapleton","created_by":"TicketMaster","category":"Music","start_date":"2016-05-02T05:30:00.000Z","venue_name":"Humphreys Concerts By the Bay","address":"2241 Shelter Island Dr.","city":"San Diego","zip":"92106","latitude":32.7164481,"longitude":-117.224241},{"title":"Puscifer","created_by":"TicketMaster","category":"Music","start_date":"2016-05-02T05:30:00.000Z","venue_name":"Jacobs Music Center's Copley Symphony Hall","address":"750 B Street","city":"San Diego","zip":"92101","latitude":39.1433685,"longitude":-121.5864307},{"title":"Marlon Wayans - Scandal-less","created_by":"TicketMaster","category":"Arts & Theater","start_date":"2016-05-02T06:00:00.000Z","venue_name":"Balboa Theatre","address":"868 Fourth Avenue","city":"San Diego","zip":"92101","latitude":32.714329,"longitude":-117.161364},{"title":"Color Til Monday / Art of Decay / Sea of Trees","created_by":"TicketMaster","category":"Music","start_date":"2016-05-02T07:00:00.000Z","venue_name":"The Merrow","address":"1271 University Avenue","city":"San Diego","zip":"92103","latitude":37.45573390000001,"longitude":-122.1496975},{"title":"Baby Bash, MC Magic & Lil Sicko W/ Lil Black and Lil Demon","created_by":"TicketMaster","category":"Music","start_date":"2016-05-03T06:00:00.000Z","venue_name":"The North Park Theatre","address":"2891 University Avenue","city":"San Diego","zip":"92104","latitude":33.9773265,"longitude":-117.3644548},{"title":"SDSU Aztec Baseball vs. Cal State Fullerton Titans Men's Baseball","created_by":"TicketMaster","category":"Sports","start_date":"2016-05-04T04:00:00.000Z","venue_name":"Aztec Baseball at Tony Gwynn Stadium","address":"5500 Campanile Drive","city":"San Diego","zip":"92182","latitude":32.7721328,"longitude":-117.0726647},{"title":"Eidola with Oranges and Vis","created_by":"TicketMaster","category":"Music","start_date":"2016-05-04T04:30:00.000Z","venue_name":"House of Blues San Diego","address":"1055 5th Avenue","city":"San Diego","zip":"92101","latitude":null,"longitude":null},{"title":"Gin Wigmore - Willing To Die Tour","created_by":"TicketMaster","category":"Music","start_date":"2016-05-04T05:00:00.000Z","venue_name":"House of Blues San Diego","address":"1055 5th Avenue","city":"San Diego","zip":"92101","latitude":null,"longitude":null},{"title":"Pentatonix: The World Tour 2016 with special guests Us The Duo & AJ","created_by":"TicketMaster","category":"Music","start_date":"2016-05-04T05:30:00.000Z","venue_name":"Cal Coast Credit Union Open Air Theatre at SDSU","address":"5500 Campanile Dr","city":"San Diego","zip":"92182","latitude":32.7721328,"longitude":-117.0726647},{"title":"Monsieur Perine","created_by":"TicketMaster","category":"Music","start_date":"2016-05-04T06:00:00.000Z","venue_name":"Music Box","address":"1337 India Street","city":"San Diego","zip":"92101","latitude":32.719404,"longitude":-117.167835},{"title":"Quiet Life / Wish and the Well / Mike Quinn","created_by":"TicketMaster","category":"Music","start_date":"2016-05-04T07:00:00.000Z","venue_name":"The Merrow","address":"1271 University Avenue","city":"San Diego","zip":"92103","latitude":37.45573390000001,"longitude":-122.1496975},{"title":"Barrett Motor Boat Reservation","created_by":"TicketMaster","category":"Sports","start_date":"2016-05-04T15:00:00.000Z","venue_name":"Barrett Lake","address":"Lyons Valley Rd","city":"Dulzura","zip":"92040","latitude":32.7158834,"longitude":-116.7688149},{"title":"Shore or Float tube Fishing Reservation","created_by":"TicketMaster","category":"Sports","start_date":"2016-05-04T15:00:00.000Z","venue_name":"Barrett Lake","address":"Lyons Valley Rd","city":"Dulzura","zip":"92040","latitude":32.7158834,"longitude":-116.7688149},{"title":"Music Box Presents Crystal Bowersox","created_by":"TicketMaster","category":"Music","start_date":"2016-05-05T04:30:00.000Z","venue_name":"House of Blues San Diego","address":"1055 5th Avenue","city":"San Diego","zip":"92101","latitude":null,"longitude":null},{"title":"Blaqk Audio","created_by":"TicketMaster","category":"Music","start_date":"2016-05-05T05:00:00.000Z","venue_name":"House of Blues San Diego","address":"1055 5th Avenue","city":"San Diego","zip":"92101","latitude":null,"longitude":null},{"title":"Megafauna / Aj Froman / Strange Planet","created_by":"TicketMaster","category":"Music","start_date":"2016-05-05T07:00:00.000Z","venue_name":"The Merrow","address":"1271 University Avenue","city":"San Diego","zip":"92103","latitude":37.45573390000001,"longitude":-122.1496975},{"title":"Hippo Campus","created_by":"TicketMaster","category":"Music","start_date":"2016-05-06T05:00:00.000Z","venue_name":"House of Blues San Diego","address":"1055 5th Avenue","city":"San Diego","zip":"92101","latitude":null,"longitude":null},{"title":"Apocalyptica - Shadowmaker Tour","created_by":"TicketMaster","category":"Music","start_date":"2016-05-06T05:00:00.000Z","venue_name":"House of Blues San Diego","address":"1055 5th Avenue","city":"San Diego","zip":"92101","latitude":null,"longitude":null},{"title":"Breakthru Entertainment","created_by":"TicketMaster","category":"Music","start_date":"2016-05-07T04:00:00.000Z","venue_name":"House of Blues San Diego","address":"1055 5th Avenue","city":"San Diego","zip":"92101","latitude":null,"longitude":null},{"title":"71st Annual DMNHS Featuring the $25,000 Grand Prix","created_by":"TicketMaster","category":"Sports","start_date":"2016-05-07T04:45:00.000Z","venue_name":"Del Mar Fairgrounds","address":"2260 Jimmy Durante Blvd.","city":"Del Mar","zip":"92014","latitude":32.97568340000001,"longitude":-117.2613476},{"title":"Violent Femmes","created_by":"TicketMaster","category":"Music","start_date":"2016-05-07T05:30:00.000Z","venue_name":"Humphreys Concerts By the Bay","address":"2241 Shelter Island Dr.","city":"San Diego","zip":"92106","latitude":32.7164481,"longitude":-117.224241},{"title":"City Ballet's Romeo and Juliet","created_by":"TicketMaster","category":"Arts & Theater","start_date":"2016-05-07T06:00:00.000Z","venue_name":"Spreckels Theatre","address":"121 Broadway","city":"San Diego","zip":"92101","latitude":37.795869,"longitude":-122.2765511},{"title":"Jim Breuer","created_by":"TicketMaster","category":"Arts & Theater","start_date":"2016-05-07T06:00:00.000Z","venue_name":"The North Park Theatre","address":"2891 University Avenue","city":"San Diego","zip":"92104","latitude":33.9773265,"longitude":-117.3644548},{"title":"Cowgirls From Hell / Raise the Guns / Mursic / Dead Chaplain","created_by":"TicketMaster","category":"Music","start_date":"2016-05-07T06:00:00.000Z","venue_name":"The Merrow","address":"1271 University Avenue","city":"San Diego","zip":"92103","latitude":37.45573390000001,"longitude":-122.1496975},{"title":"90's Remix W/ Jagged Edge, Ideal, & Wildside","created_by":"TicketMaster","category":"Music","start_date":"2016-05-07T07:00:00.000Z","venue_name":"Music Box","address":"1337 India Street","city":"San Diego","zip":"92101","latitude":32.719404,"longitude":-117.167835},{"title":"Barrett Motor Boat Reservation","created_by":"TicketMaster","category":"Sports","start_date":"2016-05-07T15:00:00.000Z","venue_name":"Barrett Lake","address":"Lyons Valley Rd","city":"Dulzura","zip":"92040","latitude":32.7158834,"longitude":-116.7688149},{"title":"Shore or Float tube Fishing Reservation","created_by":"TicketMaster","category":"Sports","start_date":"2016-05-07T15:00:00.000Z","venue_name":"Barrett Lake","address":"Lyons Valley Rd","city":"Dulzura","zip":"92040","latitude":32.7158834,"longitude":-116.7688149},{"title":"71st Annual DMNHS Featuring the $100,000 Grand Prix","created_by":"TicketMaster","category":"Sports","start_date":"2016-05-08T04:45:00.000Z","venue_name":"Del Mar Fairgrounds","address":"2260 Jimmy Durante Blvd.","city":"Del Mar","zip":"92014","latitude":32.97568340000001,"longitude":-117.2613476},{"title":"Great Scott","created_by":"TicketMaster","category":"Arts & Theater","start_date":"2016-05-08T05:00:00.000Z","venue_name":"San Diego Civic Theatre","address":"3rd & B St.","city":"San Diego","zip":"92101","latitude":38.5439464,"longitude":-121.7447112},{"title":"Saul Hernandez","created_by":"TicketMaster","category":"Music","start_date":"2016-05-08T05:30:00.000Z","venue_name":"House of Blues San Diego","address":"1055 5th Avenue","city":"San Diego","zip":"92101","latitude":null,"longitude":null},{"title":"Hotline Spring Tour, Magic Man & the Griswolds with Panama Wedding","created_by":"TicketMaster","category":"Music","start_date":"2016-05-08T06:00:00.000Z","venue_name":"The North Park Theatre","address":"2891 University Avenue","city":"San Diego","zip":"92104","latitude":33.9773265,"longitude":-117.3644548},{"title":"Metalsucks Presents, So Hideous (Prosthetic Records) / Bosse-De-Nage /","created_by":"TicketMaster","category":"Music","start_date":"2016-05-08T06:00:00.000Z","venue_name":"The Merrow","address":"1271 University Avenue","city":"San Diego","zip":"92103","latitude":37.45573390000001,"longitude":-122.1496975},{"title":"City Ballet's Romeo and Juliet","created_by":"TicketMaster","category":"Arts & Theater","start_date":"2016-05-08T06:00:00.000Z","venue_name":"Spreckels Theatre","address":"121 Broadway","city":"San Diego","zip":"92101","latitude":37.795869,"longitude":-122.2765511},{"title":"The Slackers, Viernes 13","created_by":"TicketMaster","category":"Music","start_date":"2016-05-08T06:30:00.000Z","venue_name":"Music Box","address":"1337 India Street","city":"San Diego","zip":"92101","latitude":32.719404,"longitude":-117.167835},{"title":"Shore or Float tube Fishing Reservation","created_by":"TicketMaster","category":"Sports","start_date":"2016-05-08T15:00:00.000Z","venue_name":"Barrett Lake","address":"Lyons Valley Rd","city":"Dulzura","zip":"92040","latitude":32.7158834,"longitude":-116.7688149},{"title":"Barrett Motor Boat Reservation","created_by":"TicketMaster","category":"Sports","start_date":"2016-05-08T15:00:00.000Z","venue_name":"Barrett Lake","address":"Lyons Valley Rd","city":"Dulzura","zip":"92040","latitude":32.7158834,"longitude":-116.7688149},{"title":"Kirk Franklin Presents Gospel Brunch at House of Blues (SD)","created_by":"TicketMaster","category":"Music","start_date":"2016-05-08T20:00:00.000Z","venue_name":"House of Blues San Diego","address":"1055 5th Avenue","city":"San Diego","zip":"92101","latitude":null,"longitude":null},{"title":"City Ballet's Romeo and Juliet","created_by":"TicketMaster","category":"Arts & Theater","start_date":"2016-05-09T00:00:00.000Z","venue_name":"Spreckels Theatre","address":"121 Broadway","city":"San Diego","zip":"92101","latitude":37.795869,"longitude":-122.2765511},{"title":"Mother's Day Concert W/ Lo Shi Fong And Irene Yeh","created_by":"TicketMaster","category":"Family","start_date":"2016-05-09T02:00:00.000Z","venue_name":"Harrah’s Resort SoCal - The Events Center","address":"777 Harrah's Rincon Way","city":"Valley Center","zip":"92082","latitude":33.265793,"longitude":-116.9549353},{"title":"X , Los Lobos, the Blasters & Lp3 & the Tragedy","created_by":"TicketMaster","category":"Music","start_date":"2016-05-09T05:00:00.000Z","venue_name":"The North Park Theatre","address":"2891 University Avenue","city":"San Diego","zip":"92104","latitude":33.9773265,"longitude":-117.3644548},{"title":"Eli Young Band","created_by":"TicketMaster","category":"Music","start_date":"2016-05-09T05:00:00.000Z","venue_name":"House of Blues San Diego","address":"1055 5th Avenue","city":"San Diego","zip":"92101","latitude":null,"longitude":null},{"title":"Four Tet, Ben Ufo, Andy Stott","created_by":"TicketMaster","category":"Music","start_date":"2016-05-09T06:00:00.000Z","venue_name":"Music Box","address":"1337 India Street","city":"San Diego","zip":"92101","latitude":32.719404,"longitude":-117.167835},{"title":"Rihanna: Anti World Tour 2016","created_by":"TicketMaster","category":"Music","start_date":"2016-05-10T05:30:00.000Z","venue_name":"Viejas Arena at Aztec Bowl San Diego State University","address":"SDSU","city":"San Diego","zip":"92182","latitude":32.9797085,"longitude":-115.4875611},{"title":"Ceremony @ the Back Room","created_by":"TicketMaster","category":"Music","start_date":"2016-05-10T07:00:00.000Z","venue_name":"The Merrow","address":"1271 University Avenue","city":"San Diego","zip":"92103","latitude":37.45573390000001,"longitude":-122.1496975},{"title":"Great Scott","created_by":"TicketMaster","category":"Arts & Theater","start_date":"2016-05-11T05:00:00.000Z","venue_name":"San Diego Civic Theatre","address":"3rd & B St.","city":"San Diego","zip":"92101","latitude":38.5439464,"longitude":-121.7447112},{"title":"Burning Ghosts / Hm3 / Nathan Hubbard/Passengers","created_by":"TicketMaster","category":"Music","start_date":"2016-05-11T07:00:00.000Z","venue_name":"The Merrow","address":"1271 University Avenue","city":"San Diego","zip":"92103","latitude":37.45573390000001,"longitude":-122.1496975},{"title":"Javier Colon","created_by":"TicketMaster","category":"Music","start_date":"2016-05-11T07:00:00.000Z","venue_name":"Music Box","address":"1337 India Street","city":"San Diego","zip":"92101","latitude":32.719404,"longitude":-117.167835},{"title":"Barrett Motor Boat Reservation","created_by":"TicketMaster","category":"Sports","start_date":"2016-05-11T15:00:00.000Z","venue_name":"Barrett Lake","address":"Lyons Valley Rd","city":"Dulzura","zip":"92040","latitude":32.7158834,"longitude":-116.7688149},{"title":"Shore or Float tube Fishing Reservation","created_by":"TicketMaster","category":"Sports","start_date":"2016-05-11T15:00:00.000Z","venue_name":"Barrett Lake","address":"Lyons Valley Rd","city":"Dulzura","zip":"92040","latitude":32.7158834,"longitude":-116.7688149},{"title":"Iamsu!","created_by":"TicketMaster","category":"Music","start_date":"2016-05-12T05:00:00.000Z","venue_name":"The North Park Theatre","address":"2891 University Avenue","city":"San Diego","zip":"92104","latitude":33.9773265,"longitude":-117.3644548},{"title":"Jenny and the Mexicats","created_by":"TicketMaster","category":"Music","start_date":"2016-05-12T06:00:00.000Z","venue_name":"Music Box","address":"1337 India Street","city":"San Diego","zip":"92101","latitude":32.719404,"longitude":-117.167835},{"title":"SDSU Aztec Softball v Boise State","created_by":"TicketMaster","category":"Sports","start_date":"2016-05-13T04:00:00.000Z","venue_name":"Aztec Softball at SDSU Softball Stadium","address":"5500 Campanile Drive","city":"San Diego","zip":"92182","latitude":32.7721328,"longitude":-117.0726647},{"title":"Beyoncé - The Formation World Tour","created_by":"TicketMaster","category":"Music","start_date":"2016-05-13T05:30:00.000Z","venue_name":"Qualcomm Stadium","address":"9449 Friars Road","city":"San Diego","zip":"92108","latitude":32.7831396,"longitude":-117.1196165},{"title":"Charles Bradley and His Extraordinaires","created_by":"TicketMaster","category":"Music","start_date":"2016-05-13T07:00:00.000Z","venue_name":"The North Park Theatre","address":"2891 University Avenue","city":"San Diego","zip":"92104","latitude":33.9773265,"longitude":-117.3644548},{"title":"Dumpstaphunk, C-Money & the Players Inc","created_by":"TicketMaster","category":"Music","start_date":"2016-05-13T07:00:00.000Z","venue_name":"Music Box","address":"1337 India Street","city":"San Diego","zip":"92101","latitude":32.719404,"longitude":-117.167835},{"title":"2016 Arts & Letters Commencement","created_by":"TicketMaster","category":"Family","start_date":"2016-05-13T21:00:00.000Z","venue_name":"Viejas Arena at Aztec Bowl San Diego State University","address":"SDSU","city":"San Diego","zip":"92182","latitude":32.9797085,"longitude":-115.4875611},{"title":"Health & Human Services Commencement 2016","created_by":"TicketMaster","category":"Family","start_date":"2016-05-14T01:00:00.000Z","venue_name":"Viejas Arena at Aztec Bowl San Diego State University","address":"SDSU","city":"San Diego","zip":"92182","latitude":32.9797085,"longitude":-115.4875611},{"title":"Local Band Showcase","created_by":"TicketMaster","category":"Music","start_date":"2016-05-14T03:45:00.000Z","venue_name":"House of Blues San Diego","address":"1055 5th Avenue","city":"San Diego","zip":"92101","latitude":null,"longitude":null},{"title":"SDSU Aztec Softball v Boise State","created_by":"TicketMaster","category":"Sports","start_date":"2016-05-14T04:00:00.000Z","venue_name":"Aztec Softball at SDSU Softball Stadium","address":"5500 Campanile Drive","city":"San Diego","zip":"92182","latitude":32.7721328,"longitude":-117.0726647},{"title":"Channel 933 Summer Kick Off","created_by":"TicketMaster","category":"Music","start_date":"2016-05-14T04:00:00.000Z","venue_name":"Sleep Train Amphitheatre in Chula Vista","address":"2050 Entertainment Circle","city":"Chula Vista","zip":"91911","latitude":32.5882959,"longitude":-117.0060564},{"title":"SDSU Aztec Baseball vs. Air Force Academy Falcons Baseball","created_by":"TicketMaster","category":"Sports","start_date":"2016-05-14T04:00:00.000Z","venue_name":"Aztec Baseball at Tony Gwynn Stadium","address":"5500 Campanile Drive","city":"San Diego","zip":"92182","latitude":32.7721328,"longitude":-117.0726647},{"title":"Great Scott","created_by":"TicketMaster","category":"Arts & Theater","start_date":"2016-05-14T05:00:00.000Z","venue_name":"San Diego Civic Theatre","address":"3rd & B St.","city":"San Diego","zip":"92101","latitude":38.5439464,"longitude":-121.7447112},{"title":"Andrew Bird, John Grant","created_by":"TicketMaster","category":"Music","start_date":"2016-05-14T06:00:00.000Z","venue_name":"Music Box","address":"1337 India Street","city":"San Diego","zip":"92101","latitude":32.719404,"longitude":-117.167835},{"title":"Pennywise - Performing Pennywise","created_by":"TicketMaster","category":"Music","start_date":"2016-05-14T06:00:00.000Z","venue_name":"The North Park Theatre","address":"2891 University Avenue","city":"San Diego","zip":"92104","latitude":33.9773265,"longitude":-117.3644548},{"title":"Pennywise (3 Day Pass)","created_by":"TicketMaster","category":"Music","start_date":"2016-05-14T06:00:00.000Z","venue_name":"The North Park Theatre","address":"2891 University Avenue","city":"San Diego","zip":"92104","latitude":33.9773265,"longitude":-117.3644548},{"title":"Steel Panther","created_by":"TicketMaster","category":"Music","start_date":"2016-05-14T06:00:00.000Z","venue_name":"House of Blues San Diego","address":"1055 5th Avenue","city":"San Diego","zip":"92101","latitude":null,"longitude":null},{"title":"Urizen / Kirby's Dream Band / Digital Lizards of Doom","created_by":"TicketMaster","category":"Music","start_date":"2016-05-14T07:00:00.000Z","venue_name":"The Merrow","address":"1271 University Avenue","city":"San Diego","zip":"92103","latitude":37.45573390000001,"longitude":-122.1496975},{"title":"Barrett Motor Boat Reservation","created_by":"TicketMaster","category":"Sports","start_date":"2016-05-14T15:00:00.000Z","venue_name":"Barrett Lake","address":"Lyons Valley Rd","city":"Dulzura","zip":"92040","latitude":32.7158834,"longitude":-116.7688149},{"title":"Shore or Float tube Fishing Reservation","created_by":"TicketMaster","category":"Sports","start_date":"2016-05-14T15:00:00.000Z","venue_name":"Barrett Lake","address":"Lyons Valley Rd","city":"Dulzura","zip":"92040","latitude":32.7158834,"longitude":-116.7688149},{"title":"Business Administration 2016","created_by":"TicketMaster","category":"Family","start_date":"2016-05-14T18:00:00.000Z","venue_name":"Viejas Arena at Aztec Bowl San Diego State University","address":"SDSU","city":"San Diego","zip":"92182","latitude":32.9797085,"longitude":-115.4875611},{"title":"SDSU Aztec Softball v Boise State","created_by":"TicketMaster","category":"Sports","start_date":"2016-05-14T22:00:00.000Z","venue_name":"Aztec Softball at SDSU Softball Stadium","address":"5500 Campanile Drive","city":"San Diego","zip":"92182","latitude":32.7721328,"longitude":-117.0726647},{"title":"Sciences 2016","created_by":"TicketMaster","category":"Family","start_date":"2016-05-14T23:00:00.000Z","venue_name":"Viejas Arena at Aztec Bowl San Diego State University","address":"SDSU","city":"San Diego","zip":"92182","latitude":32.9797085,"longitude":-115.4875611},{"title":"SDSU Aztec Baseball vs. Air Force Academy Falcons Baseball","created_by":"TicketMaster","category":"Sports","start_date":"2016-05-15T00:00:00.000Z","venue_name":"Aztec Baseball at Tony Gwynn Stadium","address":"5500 Campanile Drive","city":"San Diego","zip":"92182","latitude":32.7721328,"longitude":-117.0726647},{"title":"Engineering 2016","created_by":"TicketMaster","category":"Family","start_date":"2016-05-15T03:30:00.000Z","venue_name":"Viejas Arena at Aztec Bowl San Diego State University","address":"SDSU","city":"San Diego","zip":"92182","latitude":32.9797085,"longitude":-115.4875611},{"title":"Motion City Soundtrack with The Spill Canvas and Microwave","created_by":"TicketMaster","category":"Music","start_date":"2016-05-15T05:00:00.000Z","venue_name":"House of Blues San Diego","address":"1055 5th Avenue","city":"San Diego","zip":"92101","latitude":null,"longitude":null},{"title":"Paper Days / Neighbors To the North / the Paragraphs / Brothers Weiss","created_by":"TicketMaster","category":"Music","start_date":"2016-05-15T06:00:00.000Z","venue_name":"The Merrow","address":"1271 University Avenue","city":"San Diego","zip":"92103","latitude":37.45573390000001,"longitude":-122.1496975},{"title":"Kris Allen - Letting You In Tour, with Marie Miller","created_by":"TicketMaster","category":"Music","start_date":"2016-05-15T06:00:00.000Z","venue_name":"Music Box","address":"1337 India Street","city":"San Diego","zip":"92101","latitude":32.719404,"longitude":-117.167835},{"title":"Pennywise - Performing Unknown Road","created_by":"TicketMaster","category":"Music","start_date":"2016-05-15T06:00:00.000Z","venue_name":"The North Park Theatre","address":"2891 University Avenue","city":"San Diego","zip":"92104","latitude":33.9773265,"longitude":-117.3644548},{"title":"Pennywise (3 Day Pass)","created_by":"TicketMaster","category":"Music","start_date":"2016-05-15T06:00:00.000Z","venue_name":"The North Park Theatre","address":"2891 University Avenue","city":"San Diego","zip":"92104","latitude":33.9773265,"longitude":-117.3644548},{"title":"Shore or Float tube Fishing Reservation","created_by":"TicketMaster","category":"Sports","start_date":"2016-05-15T15:00:00.000Z","venue_name":"Barrett Lake","address":"Lyons Valley Rd","city":"Dulzura","zip":"92040","latitude":32.7158834,"longitude":-116.7688149},{"title":"Barrett Motor Boat Reservation","created_by":"TicketMaster","category":"Sports","start_date":"2016-05-15T15:00:00.000Z","venue_name":"Barrett Lake","address":"Lyons Valley Rd","city":"Dulzura","zip":"92040","latitude":32.7158834,"longitude":-116.7688149},{"title":"SDSU Aztec Baseball vs. Air Force Academy Falcons Baseball","created_by":"TicketMaster","category":"Sports","start_date":"2016-05-15T23:00:00.000Z","venue_name":"Aztec Baseball at Tony Gwynn Stadium","address":"5500 Campanile Drive","city":"San Diego","zip":"92182","latitude":32.7721328,"longitude":-117.0726647},{"title":"Great Scott","created_by":"TicketMaster","category":"Arts & Theater","start_date":"2016-05-16T00:00:00.000Z","venue_name":"San Diego Civic Theatre","address":"3rd & B St.","city":"San Diego","zip":"92101","latitude":38.5439464,"longitude":-121.7447112},{"title":"Alton Brown Live: Eat Your Science Tour","created_by":"TicketMaster","category":"Arts & Theater","start_date":"2016-05-16T01:00:00.000Z","venue_name":"Balboa Theatre","address":"868 Fourth Avenue","city":"San Diego","zip":"92101","latitude":32.714329,"longitude":-117.161364},{"title":"Dangerkids","created_by":"TicketMaster","category":"Music","start_date":"2016-05-16T04:30:00.000Z","venue_name":"House of Blues San Diego","address":"1055 5th Avenue","city":"San Diego","zip":"92101","latitude":null,"longitude":null},{"title":"Alton Brown Live: Eat Your Science Tour","created_by":"TicketMaster","category":"Arts & Theater","start_date":"2016-05-16T05:00:00.000Z","venue_name":"Balboa Theatre","address":"868 Fourth Avenue","city":"San Diego","zip":"92101","latitude":32.714329,"longitude":-117.161364},{"title":"Pennywise - Performing About Time","created_by":"TicketMaster","category":"Music","start_date":"2016-05-16T06:00:00.000Z","venue_name":"The North Park Theatre","address":"2891 University Avenue","city":"San Diego","zip":"92104","latitude":33.9773265,"longitude":-117.3644548},{"title":"Pennywise (3 Day Pass)","created_by":"TicketMaster","category":"Music","start_date":"2016-05-16T06:00:00.000Z","venue_name":"The North Park Theatre","address":"2891 University Avenue","city":"San Diego","zip":"92104","latitude":33.9773265,"longitude":-117.3644548},{"title":"Tech N9ne","created_by":"TicketMaster","category":"Music","start_date":"2016-05-18T05:00:00.000Z","venue_name":"The North Park Theatre","address":"2891 University Avenue","city":"San Diego","zip":"92104","latitude":33.9773265,"longitude":-117.3644548},{"title":"Hillsong United","created_by":"TicketMaster","category":"Music","start_date":"2016-05-18T05:00:00.000Z","venue_name":"Viejas Arena at Aztec Bowl San Diego State University","address":"SDSU","city":"San Diego","zip":"92182","latitude":32.9797085,"longitude":-115.4875611},{"title":"Joseph Arthur, Lee Harvey Osmond","created_by":"TicketMaster","category":"Music","start_date":"2016-05-18T07:00:00.000Z","venue_name":"Music Box","address":"1337 India Street","city":"San Diego","zip":"92101","latitude":32.719404,"longitude":-117.167835},{"title":"Shore or Float tube Fishing Reservation","created_by":"TicketMaster","category":"Sports","start_date":"2016-05-18T15:00:00.000Z","venue_name":"Barrett Lake","address":"Lyons Valley Rd","city":"Dulzura","zip":"92040","latitude":32.7158834,"longitude":-116.7688149},{"title":"Barrett Motor Boat Reservation","created_by":"TicketMaster","category":"Sports","start_date":"2016-05-18T15:00:00.000Z","venue_name":"Barrett Lake","address":"Lyons Valley Rd","city":"Dulzura","zip":"92040","latitude":32.7158834,"longitude":-116.7688149},{"title":"One Hell of a Night with Joe Walsh & Bad Company","created_by":"TicketMaster","category":"Music","start_date":"2016-05-19T05:00:00.000Z","venue_name":"Sleep Train Amphitheatre in Chula Vista","address":"2050 Entertainment Circle","city":"Chula Vista","zip":"91911","latitude":32.5882959,"longitude":-117.0060564},{"title":"Filter - Make America Hate Again Tour","created_by":"TicketMaster","category":"Music","start_date":"2016-05-20T04:00:00.000Z","venue_name":"House of Blues San Diego","address":"1055 5th Avenue","city":"San Diego","zip":"92101","latitude":null,"longitude":null},{"title":"O-Town, Super Groupie, Ricky Rebel","created_by":"TicketMaster","category":"Music","start_date":"2016-05-20T06:00:00.000Z","venue_name":"Music Box","address":"1337 India Street","city":"San Diego","zip":"92101","latitude":32.719404,"longitude":-117.167835},{"title":"Ricky Rebel","created_by":"TicketMaster","category":"Music","start_date":"2016-05-20T06:00:00.000Z","venue_name":"Music Box","address":"1337 India Street","city":"San Diego","zip":"92101","latitude":32.719404,"longitude":-117.167835},{"title":"Super Groupie","created_by":"TicketMaster","category":"Music","start_date":"2016-05-20T07:00:00.000Z","venue_name":"Music Box","address":"1337 India Street","city":"San Diego","zip":"92101","latitude":32.719404,"longitude":-117.167835},{"title":"Cinema @ The Balboa: Amadeus","created_by":"TicketMaster","category":"Miscellaneous","start_date":"2016-05-21T05:00:00.000Z","venue_name":"Balboa Theatre","address":"868 Fourth Avenue","city":"San Diego","zip":"92101","latitude":32.714329,"longitude":-117.161364},{"title":"The Cure","created_by":"TicketMaster","category":"Music","start_date":"2016-05-21T05:30:00.000Z","venue_name":"Sleep Train Amphitheatre in Chula Vista","address":"2050 Entertainment Circle","city":"Chula Vista","zip":"91911","latitude":32.5882959,"longitude":-117.0060564},{"title":"The Cult","created_by":"TicketMaster","category":"Music","start_date":"2016-05-21T05:30:00.000Z","venue_name":"Humphreys Concerts By the Bay","address":"2241 Shelter Island Dr.","city":"San Diego","zip":"92106","latitude":32.7164481,"longitude":-117.224241},{"title":"J Boog","created_by":"TicketMaster","category":"Music","start_date":"2016-05-21T06:00:00.000Z","venue_name":"The North Park Theatre","address":"2891 University Avenue","city":"San Diego","zip":"92104","latitude":33.9773265,"longitude":-117.3644548},{"title":"Grupo Niche","created_by":"TicketMaster","category":"Music","start_date":"2016-05-21T06:30:00.000Z","venue_name":"Blue Agave Nightclub","address":"6608 Mission Gorge Rd","city":"San Diego","zip":"92120","latitude":32.7934127,"longitude":-117.0986223},{"title":"Ooklah the Moc, Josh Heinrichs, for Peace Band","created_by":"TicketMaster","category":"Music","start_date":"2016-05-21T07:00:00.000Z","venue_name":"Music Box","address":"1337 India Street","city":"San Diego","zip":"92101","latitude":32.719404,"longitude":-117.167835},{"title":"Shore or Float tube Fishing Reservation","created_by":"TicketMaster","category":"Sports","start_date":"2016-05-21T15:00:00.000Z","venue_name":"Barrett Lake","address":"Lyons Valley Rd","city":"Dulzura","zip":"92040","latitude":32.7158834,"longitude":-116.7688149},{"title":"Barrett Motor Boat Reservation","created_by":"TicketMaster","category":"Sports","start_date":"2016-05-21T15:00:00.000Z","venue_name":"Barrett Lake","address":"Lyons Valley Rd","city":"Dulzura","zip":"92040","latitude":32.7158834,"longitude":-116.7688149},{"title":"Cinema @ The Balboa: Fantasia","created_by":"TicketMaster","category":"Miscellaneous","start_date":"2016-05-21T23:00:00.000Z","venue_name":"Balboa Theatre","address":"868 Fourth Avenue","city":"San Diego","zip":"92101","latitude":32.714329,"longitude":-117.161364},{"title":"Soda Bar Presents: FMLYBND with Olivver the Kid and Dark Waves","created_by":"TicketMaster","category":"Music","start_date":"2016-05-22T05:00:00.000Z","venue_name":"House of Blues San Diego","address":"1055 5th Avenue","city":"San Diego","zip":"92101","latitude":null,"longitude":null},{"title":"Father","created_by":"TicketMaster","category":"Music","start_date":"2016-05-22T05:00:00.000Z","venue_name":"The North Park Theatre","address":"2891 University Avenue","city":"San Diego","zip":"92104","latitude":33.9773265,"longitude":-117.3644548},{"title":"Jewel","created_by":"TicketMaster","category":"Music","start_date":"2016-05-22T05:30:00.000Z","venue_name":"Humphreys Concerts By the Bay","address":"2241 Shelter Island Dr.","city":"San Diego","zip":"92106","latitude":32.7164481,"longitude":-117.224241},{"title":"Brad Paisley","created_by":"TicketMaster","category":"Music","start_date":"2016-05-22T05:30:00.000Z","venue_name":"Sleep Train Amphitheatre in Chula Vista","address":"2050 Entertainment Circle","city":"Chula Vista","zip":"91911","latitude":32.5882959,"longitude":-117.0060564},{"title":"Jewel - Upgrade Meet & Greet Packages","created_by":"TicketMaster","category":"Music","start_date":"2016-05-22T05:31:00.000Z","venue_name":"Humphreys Concerts By the Bay","address":"2241 Shelter Island Dr.","city":"San Diego","zip":"92106","latitude":32.7164481,"longitude":-117.224241},{"title":"Bass Tribe Presents: Thriftworks, Galangsta","created_by":"TicketMaster","category":"Music","start_date":"2016-05-22T09:15:00.000Z","venue_name":"Music Box","address":"1337 India Street","city":"San Diego","zip":"92101","latitude":32.719404,"longitude":-117.167835},{"title":"Shore or Float tube Fishing Reservation","created_by":"TicketMaster","category":"Sports","start_date":"2016-05-22T15:00:00.000Z","venue_name":"Barrett Lake","address":"Lyons Valley Rd","city":"Dulzura","zip":"92040","latitude":32.7158834,"longitude":-116.7688149},{"title":"Barrett Motor Boat Reservation","created_by":"TicketMaster","category":"Sports","start_date":"2016-05-22T15:00:00.000Z","venue_name":"Barrett Lake","address":"Lyons Valley Rd","city":"Dulzura","zip":"92040","latitude":32.7158834,"longitude":-116.7688149},{"title":"PVRIS: North American Headline Tour plus guests","created_by":"TicketMaster","category":"Music","start_date":"2016-05-23T04:00:00.000Z","venue_name":"House of Blues San Diego","address":"1055 5th Avenue","city":"San Diego","zip":"92101","latitude":null,"longitude":null},{"title":"SDHDF Presents The San Diego Women's Chorus featuring Janis Ian","created_by":"TicketMaster","category":"Arts & Theater","start_date":"2016-05-23T05:00:00.000Z","venue_name":"Balboa Theatre","address":"868 Fourth Avenue","city":"San Diego","zip":"92101","latitude":32.714329,"longitude":-117.161364},{"title":"Kaytranada with River Tiber, Lou Phelps","created_by":"TicketMaster","category":"Music","start_date":"2016-05-25T06:00:00.000Z","venue_name":"The North Park Theatre","address":"2891 University Avenue","city":"San Diego","zip":"92104","latitude":33.9773265,"longitude":-117.3644548},{"title":"Gondwana , Fayuca, Piracy Conspiracy, DJ Carlos Culture","created_by":"TicketMaster","category":"Music","start_date":"2016-05-25T07:00:00.000Z","venue_name":"Music Box","address":"1337 India Street","city":"San Diego","zip":"92101","latitude":32.719404,"longitude":-117.167835},{"title":"Barrett Motor Boat Reservation","created_by":"TicketMaster","category":"Sports","start_date":"2016-05-25T15:00:00.000Z","venue_name":"Barrett Lake","address":"Lyons Valley Rd","city":"Dulzura","zip":"92040","latitude":32.7158834,"longitude":-116.7688149},{"title":"Shore or Float tube Fishing Reservation","created_by":"TicketMaster","category":"Sports","start_date":"2016-05-25T15:00:00.000Z","venue_name":"Barrett Lake","address":"Lyons Valley Rd","city":"Dulzura","zip":"92040","latitude":32.7158834,"longitude":-116.7688149},{"title":"Sawyer Fredericks","created_by":"TicketMaster","category":"Music","start_date":"2016-05-26T05:00:00.000Z","venue_name":"House of Blues San Diego","address":"1055 5th Avenue","city":"San Diego","zip":"92101","latitude":null,"longitude":null},{"title":"Enrique Bunbury - Mutaciones Tour 2016","created_by":"TicketMaster","category":"Music","start_date":"2016-05-26T05:00:00.000Z","venue_name":"House of Blues San Diego","address":"1055 5th Avenue","city":"San Diego","zip":"92101","latitude":null,"longitude":null},{"title":"Mayer Hawthorne","created_by":"TicketMaster","category":"Music","start_date":"2016-05-26T07:00:00.000Z","venue_name":"The North Park Theatre","address":"2891 University Avenue","city":"San Diego","zip":"92104","latitude":33.9773265,"longitude":-117.3644548},{"title":"Enrique Bunbury - Mutaciones Tour 2016","created_by":"TicketMaster","category":"Music","start_date":"2016-05-27T05:00:00.000Z","venue_name":"House of Blues San Diego","address":"1055 5th Avenue","city":"San Diego","zip":"92101","latitude":null,"longitude":null},{"title":"Walk the Moon","created_by":"TicketMaster","category":"Music","start_date":"2016-05-27T05:30:00.000Z","venue_name":"Cal Coast Credit Union Open Air Theatre at SDSU","address":"5500 Campanile Dr","city":"San Diego","zip":"92182","latitude":32.7721328,"longitude":-117.0726647},{"title":"Gigtown Presents: Speros Record Release","created_by":"TicketMaster","category":"Music","start_date":"2016-05-27T06:30:00.000Z","venue_name":"Music Box","address":"1337 India Street","city":"San Diego","zip":"92101","latitude":32.719404,"longitude":-117.167835},{"title":"Insane Clown Posse performing their classic Riddlebox album","created_by":"TicketMaster","category":"Music","start_date":"2016-05-28T04:00:00.000Z","venue_name":"House of Blues San Diego","address":"1055 5th Avenue","city":"San Diego","zip":"92101","latitude":null,"longitude":null},{"title":"The Lumineers","created_by":"TicketMaster","category":"Music","start_date":"2016-05-28T05:30:00.000Z","venue_name":"Cal Coast Credit Union Open Air Theatre at SDSU","address":"5500 Campanile Dr","city":"San Diego","zip":"92182","latitude":32.7721328,"longitude":-117.0726647},{"title":"The Who","created_by":"TicketMaster","category":"Music","start_date":"2016-05-28T05:30:00.000Z","venue_name":"Valley View Casino Center","address":"3500 Sports Arena Blvd","city":"San Diego","zip":"92110","latitude":32.7553041,"longitude":-117.2122211},{"title":"42nd STREET","created_by":"TicketMaster","category":"Arts & Theater","start_date":"2016-05-28T06:00:00.000Z","venue_name":"Spreckels Theatre","address":"121 Broadway","city":"San Diego","zip":"92101","latitude":37.795869,"longitude":-122.2765511},{"title":"Moderat","created_by":"TicketMaster","category":"Music","start_date":"2016-05-28T06:00:00.000Z","venue_name":"The North Park Theatre","address":"2891 University Avenue","city":"San Diego","zip":"92104","latitude":33.9773265,"longitude":-117.3644548},{"title":"Yasiin Bey aka Mos Def","created_by":"TicketMaster","category":"Music","start_date":"2016-05-28T07:00:00.000Z","venue_name":"Music Box","address":"1337 India Street","city":"San Diego","zip":"92101","latitude":32.719404,"longitude":-117.167835},{"title":"Camila","created_by":"TicketMaster","category":"Music","start_date":"2016-05-28T08:00:00.000Z","venue_name":"Harrah’s Resort SoCal - The Events Center","address":"777 Harrah's Rincon Way","city":"Valley Center","zip":"92082","latitude":33.265793,"longitude":-116.9549353},{"title":"Shore or Float tube Fishing Reservation","created_by":"TicketMaster","category":"Sports","start_date":"2016-05-28T15:00:00.000Z","venue_name":"Barrett Lake","address":"Lyons Valley Rd","city":"Dulzura","zip":"92040","latitude":32.7158834,"longitude":-116.7688149},{"title":"Barrett Motor Boat Reservation","created_by":"TicketMaster","category":"Sports","start_date":"2016-05-28T15:00:00.000Z","venue_name":"Barrett Lake","address":"Lyons Valley Rd","city":"Dulzura","zip":"92040","latitude":32.7158834,"longitude":-116.7688149},{"title":"Totally 80's Live","created_by":"TicketMaster","category":"Music","start_date":"2016-05-29T05:00:00.000Z","venue_name":"House of Blues San Diego","address":"1055 5th Avenue","city":"San Diego","zip":"92101","latitude":null,"longitude":null},{"title":"42nd STREET","created_by":"TicketMaster","category":"Arts & Theater","start_date":"2016-05-29T06:00:00.000Z","venue_name":"Spreckels Theatre","address":"121 Broadway","city":"San Diego","zip":"92101","latitude":37.795869,"longitude":-122.2765511},{"title":"Shore or Float tube Fishing Reservation","created_by":"TicketMaster","category":"Sports","start_date":"2016-05-29T15:00:00.000Z","venue_name":"Barrett Lake","address":"Lyons Valley Rd","city":"Dulzura","zip":"92040","latitude":32.7158834,"longitude":-116.7688149},{"title":"Barrett Motor Boat Reservation","created_by":"TicketMaster","category":"Sports","start_date":"2016-05-29T15:00:00.000Z","venue_name":"Barrett Lake","address":"Lyons Valley Rd","city":"Dulzura","zip":"92040","latitude":32.7158834,"longitude":-116.7688149},{"title":"Neisha's Dance & Music Academy Presents: Rewind Recital","created_by":"TicketMaster","category":"Arts & Theater","start_date":"2016-05-30T00:00:00.000Z","venue_name":"San Diego Civic Theatre","address":"3rd & B St.","city":"San Diego","zip":"92101","latitude":38.5439464,"longitude":-121.7447112},{"title":"42nd STREET","created_by":"TicketMaster","category":"Arts & Theater","start_date":"2016-05-30T00:00:00.000Z","venue_name":"Spreckels Theatre","address":"121 Broadway","city":"San Diego","zip":"92101","latitude":37.795869,"longitude":-122.2765511},{"title":"Burlesque Sunday Tease","created_by":"TicketMaster","category":"Arts & Theater","start_date":"2016-05-30T02:30:00.000Z","venue_name":"The Merrow","address":"1271 University Avenue","city":"San Diego","zip":"92103","latitude":37.45573390000001,"longitude":-122.1496975},{"title":"The Ben Vereen Awards","created_by":"TicketMaster","category":"Arts & Theater","start_date":"2016-05-30T04:00:00.000Z","venue_name":"Balboa Theatre","address":"868 Fourth Avenue","city":"San Diego","zip":"92101","latitude":32.714329,"longitude":-117.161364},{"title":"Oingo Boingo Dance Party Feat. DJ Steve West","created_by":"TicketMaster","category":"Music","start_date":"2016-05-30T07:00:00.000Z","venue_name":"Music Box","address":"1337 India Street","city":"San Diego","zip":"92101","latitude":32.719404,"longitude":-117.167835},{"title":"2016 Season Tickets Onsale Now","created_by":"TicketMaster","category":"Music","start_date":"2016-05-31T10:00:00.000Z","venue_name":"Sleep Train Amphitheatre in Chula Vista","address":"2050 Entertainment Circle","city":"Chula Vista","zip":"91911","latitude":32.5882959,"longitude":-117.0060564},{"title":"Newsies (Touring)","created_by":"TicketMaster","category":"Arts & Theater","start_date":"2016-06-01T05:00:00.000Z","venue_name":"San Diego Civic Theatre","address":"3rd & B St.","city":"San Diego","zip":"92101","latitude":38.5439464,"longitude":-121.7447112},{"title":"Modern Baseball, Joyce Manor, Thin Lips","created_by":"TicketMaster","category":"Music","start_date":"2016-06-02T04:30:00.000Z","venue_name":"House of Blues San Diego","address":"1055 5th Avenue","city":"San Diego","zip":"92101","latitude":null,"longitude":null},{"title":"Newsies (Touring)","created_by":"TicketMaster","category":"Arts & Theater","start_date":"2016-06-02T05:00:00.000Z","venue_name":"San Diego Civic Theatre","address":"3rd & B St.","city":"San Diego","zip":"92101","latitude":38.5439464,"longitude":-121.7447112},{"title":"Mexico v Chile","created_by":"TicketMaster","category":"Sports","start_date":"2016-06-02T05:00:00.000Z","venue_name":"Qualcomm Stadium","address":"9449 Friars Road","city":"San Diego","zip":"92108","latitude":32.7831396,"longitude":-117.1196165},{"title":"The Rides","created_by":"TicketMaster","category":"Music","start_date":"2016-06-02T05:30:00.000Z","venue_name":"Balboa Theatre","address":"868 Fourth Avenue","city":"San Diego","zip":"92101","latitude":32.714329,"longitude":-117.161364},{"title":"A$AP FERG & TORY LANEZ: The Level Up Tour","created_by":"TicketMaster","category":"Music","start_date":"2016-06-02T06:00:00.000Z","venue_name":"The North Park Theatre","address":"2891 University Avenue","city":"San Diego","zip":"92104","latitude":33.9773265,"longitude":-117.3644548},{"title":"42nd STREET","created_by":"TicketMaster","category":"Arts & Theater","start_date":"2016-06-03T05:30:00.000Z","venue_name":"Spreckels Theatre","address":"121 Broadway","city":"San Diego","zip":"92101","latitude":37.795869,"longitude":-122.2765511},{"title":"Newsies (Touring)","created_by":"TicketMaster","category":"Arts & Theater","start_date":"2016-06-03T05:30:00.000Z","venue_name":"San Diego Civic Theatre","address":"3rd & B St.","city":"San Diego","zip":"92101","latitude":38.5439464,"longitude":-121.7447112},{"title":"Yeasayer","created_by":"TicketMaster","category":"Music","start_date":"2016-06-03T06:00:00.000Z","venue_name":"The North Park Theatre","address":"2891 University Avenue","city":"San Diego","zip":"92104","latitude":33.9773265,"longitude":-117.3644548},{"title":"HELLYEAH: We're All In This Together Tour","created_by":"TicketMaster","category":"Music","start_date":"2016-06-04T04:30:00.000Z","venue_name":"House of Blues San Diego","address":"1055 5th Avenue","city":"San Diego","zip":"92101","latitude":null,"longitude":null},{"title":"Newsies (Touring)","created_by":"TicketMaster","category":"Arts & Theater","start_date":"2016-06-04T05:30:00.000Z","venue_name":"San Diego Civic Theatre","address":"3rd & B St.","city":"San Diego","zip":"92101","latitude":38.5439464,"longitude":-121.7447112},{"title":"Switchfoot","created_by":"TicketMaster","category":"Music","start_date":"2016-06-04T05:30:00.000Z","venue_name":"Del Mar Fairgrounds","address":"2260 Jimmy Durante Blvd.","city":"Del Mar","zip":"92014","latitude":32.97568340000001,"longitude":-117.2613476},{"title":"The Best of San Diego Indiefest / Danielle Lopresti Farewell Concert","created_by":"TicketMaster","category":"Music","start_date":"2016-06-04T06:00:00.000Z","venue_name":"Music Box","address":"1337 India Street","city":"San Diego","zip":"92101","latitude":32.719404,"longitude":-117.167835},{"title":"42nd STREET","created_by":"TicketMaster","category":"Arts & Theater","start_date":"2016-06-04T06:00:00.000Z","venue_name":"Spreckels Theatre","address":"121 Broadway","city":"San Diego","zip":"92101","latitude":37.795869,"longitude":-122.2765511},{"title":"Lola Demure's Burlesque & Variety Show","created_by":"TicketMaster","category":"Music","start_date":"2016-06-04T06:00:00.000Z","venue_name":"House of Blues San Diego","address":"1055 5th Avenue","city":"San Diego","zip":"92101","latitude":null,"longitude":null},{"title":"Newsies (Touring)","created_by":"TicketMaster","category":"Arts & Theater","start_date":"2016-06-05T00:00:00.000Z","venue_name":"San Diego Civic Theatre","address":"3rd & B St.","city":"San Diego","zip":"92101","latitude":38.5439464,"longitude":-121.7447112},{"title":"Thrice","created_by":"TicketMaster","category":"Music","start_date":"2016-06-05T05:00:00.000Z","venue_name":"House of Blues San Diego","address":"1055 5th Avenue","city":"San Diego","zip":"92101","latitude":null,"longitude":null},{"title":"Los Tucanes De Tijuana","created_by":"TicketMaster","category":"Music","start_date":"2016-06-05T05:30:00.000Z","venue_name":"Del Mar Fairgrounds","address":"2260 Jimmy Durante Blvd.","city":"Del Mar","zip":"92014","latitude":32.97568340000001,"longitude":-117.2613476},{"title":"Mainly Mozart Festival","created_by":"TicketMaster","category":"Arts & Theater","start_date":"2016-06-05T05:30:00.000Z","venue_name":"Balboa Theatre","address":"868 Fourth Avenue","city":"San Diego","zip":"92101","latitude":32.714329,"longitude":-117.161364},{"title":"Newsies (Touring)","created_by":"TicketMaster","category":"Arts & Theater","start_date":"2016-06-05T05:30:00.000Z","venue_name":"San Diego Civic Theatre","address":"3rd & B St.","city":"San Diego","zip":"92101","latitude":38.5439464,"longitude":-121.7447112},{"title":"A Night Of Total Entertainment with Ai Ai De Las Alas","created_by":"TicketMaster","category":"Arts & Theater","start_date":"2016-06-05T06:00:00.000Z","venue_name":"Harrah’s Resort SoCal - The Events Center","address":"777 Harrah's Rincon Way","city":"Valley Center","zip":"92082","latitude":33.265793,"longitude":-116.9549353},{"title":"42nd STREET","created_by":"TicketMaster","category":"Arts & Theater","start_date":"2016-06-05T06:00:00.000Z","venue_name":"Spreckels Theatre","address":"121 Broadway","city":"San Diego","zip":"92101","latitude":37.795869,"longitude":-122.2765511},{"title":"Zoso: the Ultimate Led Zeppelin Tribute","created_by":"TicketMaster","category":"Music","start_date":"2016-06-05T07:00:00.000Z","venue_name":"Music Box","address":"1337 India Street","city":"San Diego","zip":"92101","latitude":32.719404,"longitude":-117.167835},{"title":"Tea Time in Wonderland","created_by":"TicketMaster","category":"Family","start_date":"2016-06-05T21:00:00.000Z","venue_name":"Del Mar Fairgrounds","address":"2260 Jimmy Durante Blvd.","city":"Del Mar","zip":"92014","latitude":32.97568340000001,"longitude":-117.2613476},{"title":"Tea Time in Wonderland","created_by":"TicketMaster","category":"Family","start_date":"2016-06-05T23:00:00.000Z","venue_name":"Del Mar Fairgrounds","address":"2260 Jimmy Durante Blvd.","city":"Del Mar","zip":"92014","latitude":32.97568340000001,"longitude":-117.2613476},{"title":"Newsies (Touring)","created_by":"TicketMaster","category":"Arts & Theater","start_date":"2016-06-05T23:00:00.000Z","venue_name":"San Diego Civic Theatre","address":"3rd & B St.","city":"San Diego","zip":"92101","latitude":38.5439464,"longitude":-121.7447112},{"title":"91X X-FEST","created_by":"TicketMaster","category":"Music","start_date":"2016-06-06T00:00:00.000Z","venue_name":"Sleep Train Amphitheatre in Chula Vista","address":"2050 Entertainment Circle","city":"Chula Vista","zip":"91911","latitude":32.5882959,"longitude":-117.0060564},{"title":"Mainly Mozart Festival: Youth Orchestra","created_by":"TicketMaster","category":"Arts & Theater","start_date":"2016-06-06T00:00:00.000Z","venue_name":"Balboa Theatre","address":"868 Fourth Avenue","city":"San Diego","zip":"92101","latitude":32.714329,"longitude":-117.161364},{"title":"42nd STREET","created_by":"TicketMaster","category":"Arts & Theater","start_date":"2016-06-06T00:00:00.000Z","venue_name":"Spreckels Theatre","address":"121 Broadway","city":"San Diego","zip":"92101","latitude":37.795869,"longitude":-122.2765511},{"title":"Newsies (Touring)","created_by":"TicketMaster","category":"Arts & Theater","start_date":"2016-06-06T04:30:00.000Z","venue_name":"San Diego Civic Theatre","address":"3rd & B St.","city":"San Diego","zip":"92101","latitude":38.5439464,"longitude":-121.7447112},{"title":"Lady Antebellum","created_by":"TicketMaster","category":"Music","start_date":"2016-06-06T05:30:00.000Z","venue_name":"Del Mar Fairgrounds","address":"2260 Jimmy Durante Blvd.","city":"Del Mar","zip":"92014","latitude":32.97568340000001,"longitude":-117.2613476},{"title":"Caravan Palace with Bakkuda","created_by":"TicketMaster","category":"Music","start_date":"2016-06-07T06:00:00.000Z","venue_name":"The North Park Theatre","address":"2891 University Avenue","city":"San Diego","zip":"92104","latitude":33.9773265,"longitude":-117.3644548},{"title":"Rachel Platten","created_by":"TicketMaster","category":"Music","start_date":"2016-06-09T05:30:00.000Z","venue_name":"Del Mar Fairgrounds","address":"2260 Jimmy Durante Blvd.","city":"Del Mar","zip":"92014","latitude":32.97568340000001,"longitude":-117.2613476},{"title":"Mainly Mozart Festival","created_by":"TicketMaster","category":"Arts & Theater","start_date":"2016-06-09T05:30:00.000Z","venue_name":"Balboa Theatre","address":"868 Fourth Avenue","city":"San Diego","zip":"92101","latitude":32.714329,"longitude":-117.161364},{"title":"The Smokers Club Presents Presents: Cam'ron, the Underachievers, G Her","created_by":"TicketMaster","category":"Music","start_date":"2016-06-10T05:00:00.000Z","venue_name":"The North Park Theatre","address":"2891 University Avenue","city":"San Diego","zip":"92104","latitude":33.9773265,"longitude":-117.3644548},{"title":"Joan Jett & the Blackhearts","created_by":"TicketMaster","category":"Music","start_date":"2016-06-10T05:30:00.000Z","venue_name":"Del Mar Fairgrounds","address":"2260 Jimmy Durante Blvd.","city":"Del Mar","zip":"92014","latitude":32.97568340000001,"longitude":-117.2613476},{"title":"42nd STREET","created_by":"TicketMaster","category":"Arts & Theater","start_date":"2016-06-10T05:30:00.000Z","venue_name":"Spreckels Theatre","address":"121 Broadway","city":"San Diego","zip":"92101","latitude":37.795869,"longitude":-122.2765511},{"title":"Los Lonely Boys","created_by":"TicketMaster","category":"Music","start_date":"2016-06-10T06:00:00.000Z","venue_name":"Del Mar Fairgrounds","address":"2260 Jimmy Durante Blvd.","city":"Del Mar","zip":"92014","latitude":32.97568340000001,"longitude":-117.2613476},{"title":"Soda Bar Presents: Drake Vs. Kanye (Tribute Party)","created_by":"TicketMaster","category":"Music","start_date":"2016-06-10T07:30:00.000Z","venue_name":"Music Box","address":"1337 India Street","city":"San Diego","zip":"92101","latitude":32.719404,"longitude":-117.167835},{"title":"Michael McDonald","created_by":"TicketMaster","category":"Music","start_date":"2016-06-11T05:30:00.000Z","venue_name":"Del Mar Fairgrounds","address":"2260 Jimmy Durante Blvd.","city":"Del Mar","zip":"92014","latitude":32.97568340000001,"longitude":-117.2613476},{"title":"42nd STREET","created_by":"TicketMaster","category":"Arts & Theater","start_date":"2016-06-11T06:00:00.000Z","venue_name":"Spreckels Theatre","address":"121 Broadway","city":"San Diego","zip":"92101","latitude":37.795869,"longitude":-122.2765511},{"title":"Elvis Crespo","created_by":"TicketMaster","category":"Music","start_date":"2016-06-11T06:30:00.000Z","venue_name":"Blue Agave Nightclub","address":"6608 Mission Gorge Rd","city":"San Diego","zip":"92120","latitude":32.7934127,"longitude":-117.0986223},{"title":"Out at the Fair","created_by":"TicketMaster","category":"Miscellaneous","start_date":"2016-06-11T20:00:00.000Z","venue_name":"Del Mar Fairgrounds","address":"2260 Jimmy Durante Blvd.","city":"Del Mar","zip":"92014","latitude":32.97568340000001,"longitude":-117.2613476},{"title":"Toast of the Coast Wine Festival-Session 1","created_by":"TicketMaster","category":"Music","start_date":"2016-06-11T22:00:00.000Z","venue_name":"Del Mar Fairgrounds","address":"2260 Jimmy Durante Blvd.","city":"Del Mar","zip":"92014","latitude":32.97568340000001,"longitude":-117.2613476},{"title":"Toast of the Coast Wine Festival-Session 2","created_by":"TicketMaster","category":"Music","start_date":"2016-06-12T02:00:00.000Z","venue_name":"Del Mar Fairgrounds","address":"2260 Jimmy Durante Blvd.","city":"Del Mar","zip":"92014","latitude":32.97568340000001,"longitude":-117.2613476},{"title":"Bethel Music&HOB Presents: Amanda Cook  Brave New World Tour.","created_by":"TicketMaster","category":"Music","start_date":"2016-06-12T04:30:00.000Z","venue_name":"House of Blues San Diego","address":"1055 5th Avenue","city":"San Diego","zip":"92101","latitude":null,"longitude":null},{"title":"Too $hort & Tha Dogg Pound","created_by":"TicketMaster","category":"Music","start_date":"2016-06-12T05:00:00.000Z","venue_name":"The North Park Theatre","address":"2891 University Avenue","city":"San Diego","zip":"92104","latitude":33.9773265,"longitude":-117.3644548},{"title":"Mainly Mozart Festival","created_by":"TicketMaster","category":"Arts & Theater","start_date":"2016-06-12T05:30:00.000Z","venue_name":"Balboa Theatre","address":"868 Fourth Avenue","city":"San Diego","zip":"92101","latitude":32.714329,"longitude":-117.161364},{"title":"42nd STREET","created_by":"TicketMaster","category":"Arts & Theater","start_date":"2016-06-12T06:00:00.000Z","venue_name":"Spreckels Theatre","address":"121 Broadway","city":"San Diego","zip":"92101","latitude":37.795869,"longitude":-122.2765511},{"title":"Soda Bar Presents: Greys + Guests","created_by":"TicketMaster","category":"Music","start_date":"2016-06-12T07:00:00.000Z","venue_name":"The Merrow","address":"1271 University Avenue","city":"San Diego","zip":"92103","latitude":37.45573390000001,"longitude":-122.1496975},{"title":"Tea Time in Wonderland","created_by":"TicketMaster","category":"Family","start_date":"2016-06-12T21:00:00.000Z","venue_name":"Del Mar Fairgrounds","address":"2260 Jimmy Durante Blvd.","city":"Del Mar","zip":"92014","latitude":32.97568340000001,"longitude":-117.2613476},{"title":"Tea Time in Wonderland","created_by":"TicketMaster","category":"Family","start_date":"2016-06-12T23:00:00.000Z","venue_name":"Del Mar Fairgrounds","address":"2260 Jimmy Durante Blvd.","city":"Del Mar","zip":"92014","latitude":32.97568340000001,"longitude":-117.2613476},{"title":"42nd STREET","created_by":"TicketMaster","category":"Arts & Theater","start_date":"2016-06-13T00:00:00.000Z","venue_name":"Spreckels Theatre","address":"121 Broadway","city":"San Diego","zip":"92101","latitude":37.795869,"longitude":-122.2765511},{"title":"Espinoza Paz","created_by":"TicketMaster","category":"Music","start_date":"2016-06-13T05:30:00.000Z","venue_name":"Del Mar Fairgrounds","address":"2260 Jimmy Durante Blvd.","city":"Del Mar","zip":"92014","latitude":32.97568340000001,"longitude":-117.2613476},{"title":"The Other Mozart","created_by":"TicketMaster","category":"Arts & Theater","start_date":"2016-06-13T05:30:00.000Z","venue_name":"Balboa Theatre","address":"868 Fourth Avenue","city":"San Diego","zip":"92101","latitude":32.714329,"longitude":-117.161364},{"title":"Bass Tribe Presents: Opiuo Band (Live)","created_by":"TicketMaster","category":"Music","start_date":"2016-06-13T06:30:00.000Z","venue_name":"Music Box","address":"1337 India Street","city":"San Diego","zip":"92101","latitude":32.719404,"longitude":-117.167835},{"title":"Bob Dylan","created_by":"TicketMaster","category":"Music","start_date":"2016-06-14T05:00:00.000Z","venue_name":"Humphreys Concerts By the Bay","address":"2241 Shelter Island Dr.","city":"San Diego","zip":"92106","latitude":32.7164481,"longitude":-117.224241},{"title":"Aaron West and the Roaring Twenties","created_by":"TicketMaster","category":"Music","start_date":"2016-06-15T04:00:00.000Z","venue_name":"House of Blues San Diego","address":"1055 5th Avenue","city":"San Diego","zip":"92101","latitude":null,"longitude":null},{"title":"Bob Dylan","created_by":"TicketMaster","category":"Music","start_date":"2016-06-15T05:00:00.000Z","venue_name":"Humphreys Concerts By the Bay","address":"2241 Shelter Island Dr.","city":"San Diego","zip":"92106","latitude":32.7164481,"longitude":-117.224241},{"title":"Berner with Kool John & Anonymous That Dude","created_by":"TicketMaster","category":"Music","start_date":"2016-06-15T05:00:00.000Z","venue_name":"The North Park Theatre","address":"2891 University Avenue","city":"San Diego","zip":"92104","latitude":33.9773265,"longitude":-117.3644548}]