[{"title":"The Wild Feathers","created_by":"TicketMaster","category":"Music","start_date":"2016-04-23T05:00:00.000Z","venue_name":"The Hollow","address":"79 North Pearl St","city":"Albany","zip":"12207","latitude":40.7040869,"longitude":-74.01041049999999},{"title":"Transit","created_by":"TicketMaster","category":"Music","start_date":"2016-04-23T05:00:00.000Z","venue_name":"The Foundry","address":"1000 Frankford Ave","city":"Philadelphia","zip":"19125","latitude":40.7036259,"longitude":-73.3606554},{"title":"Albany Devils vs. Utica Comets","created_by":"TicketMaster","category":"Sports","start_date":"2016-04-23T05:00:00.000Z","venue_name":"Times Union Center","address":"51 South Pearl Street","city":"Albany","zip":"12207","latitude":40.7034388,"longitude":-74.0116527},{"title":"Future","created_by":"TicketMaster","category":"Music","start_date":"2016-04-23T05:30:00.000Z","venue_name":"Marina Jeep Arena at The Main Street Armory","address":"900 E Main Street","city":"Rochester","zip":"14605","latitude":40.7703199,"longitude":-73.94246729999999},{"title":"Help! My Husband Has Gone Missing: My Daughter Is Getting Married & I","created_by":"TicketMaster","category":"Arts & Theater","start_date":"2016-04-23T06:00:00.000Z","venue_name":"Smith Theatre","address":"660 Main Street","city":"Buffalo","zip":"14202","latitude":40.7651772,"longitude":-73.9467174},{"title":"Avenue Q","created_by":"TicketMaster","category":"Arts & Theater","start_date":"2016-04-23T06:00:00.000Z","venue_name":"710 Main Street","address":"710 Main St","city":"Buffalo","zip":"14202","latitude":40.7657274,"longitude":-73.9462272},{"title":"Enter the Haggis","created_by":"TicketMaster","category":"Music","start_date":"2016-04-23T06:00:00.000Z","venue_name":"Tralf","address":"622 Main St","city":"Buffalo","zip":"14202","latitude":40.7648625,"longitude":-73.9469977},{"title":"CMT Presents Jennifer Nettles With 2016 Next Women Of Country Tour","created_by":"TicketMaster","category":"Music","start_date":"2016-04-23T06:00:00.000Z","venue_name":"The Palace Theatre Albany","address":"19 Clinton Ave","city":"Albany","zip":"12207","latitude":40.69729,"longitude":-73.9693099},{"title":"Stomp","created_by":"TicketMaster","category":"Arts & Theater","start_date":"2016-04-23T06:00:00.000Z","venue_name":"Rochester Auditorium Theatre","address":"885 East Main Street","city":"Rochester","zip":"14605","latitude":40.7572391,"longitude":-73.95347009999999},{"title":"Katt Williams: Conspiracy Theory","created_by":"TicketMaster","category":"Arts & Theater","start_date":"2016-04-23T06:00:00.000Z","venue_name":"Blue Cross Arena","address":"One War Memorial Square","city":"Rochester","zip":"14614","latitude":42.4491717,"longitude":-75.0612675},{"title":"DJ Snake: Pardon My French Tour","created_by":"TicketMaster","category":"Music","start_date":"2016-04-23T06:30:00.000Z","venue_name":"The Fillmore Philadelphia","address":"29 E Allen Street","city":"Philadelphia","zip":"19123","latitude":40.71581399999999,"longitude":-73.992548},{"title":"Women Helping Girls Introduces A New App","created_by":"TicketMaster","category":"Miscellaneous","start_date":"2016-04-23T22:00:00.000Z","venue_name":"Blue Cross Arena","address":"One War Memorial Square","city":"Rochester","zip":"14614","latitude":42.4491717,"longitude":-75.0612675},{"title":"Stomp","created_by":"TicketMaster","category":"Arts & Theater","start_date":"2016-04-24T00:00:00.000Z","venue_name":"Rochester Auditorium Theatre","address":"885 East Main Street","city":"Rochester","zip":"14605","latitude":40.7572391,"longitude":-73.95347009999999},{"title":"Help! My Husband Has Gone Missing: My Daughter Is Getting Married & I","created_by":"TicketMaster","category":"Arts & Theater","start_date":"2016-04-24T02:00:00.000Z","venue_name":"Smith Theatre","address":"660 Main Street","city":"Buffalo","zip":"14202","latitude":40.7651772,"longitude":-73.9467174},{"title":"Albany Devils vs. Utica Comets","created_by":"TicketMaster","category":"Sports","start_date":"2016-04-24T03:00:00.000Z","venue_name":"Times Union Center","address":"51 South Pearl Street","city":"Albany","zip":"12207","latitude":40.7034388,"longitude":-74.0116527},{"title":"Spring Fest 2016 Feat. The Chainsmokers, Mac Miller, Icona Pop & more!","created_by":"TicketMaster","category":"Music","start_date":"2016-04-24T04:00:00.000Z","venue_name":"University at Buffalo - Alumni Arena","address":"108 Alumni Arena, University at Buffalo - North Campus","city":"Buffalo","zip":"14260","latitude":42.88644679999999,"longitude":-78.8783689},{"title":"Canisius Colllege Lacrosse v. Detroit","created_by":"TicketMaster","category":"Sports","start_date":"2016-04-24T05:00:00.000Z","venue_name":"Demske Sports Complex At Canisius College","address":"2001 Main Street","city":"Buffalo","zip":"14226","latitude":40.7102821,"longitude":-73.8188462},{"title":"Buddy Guy","created_by":"TicketMaster","category":"Music","start_date":"2016-04-24T05:00:00.000Z","venue_name":"The Seneca Allegany Events Center at Seneca Allegany Casino","address":"777 Seneca Allegany Blvd","city":"Salamanca","zip":"14779","latitude":42.1521391,"longitude":-78.7483669},{"title":"John Mellencamp: Plain Spoken Tour","created_by":"TicketMaster","category":"Music","start_date":"2016-04-24T05:30:00.000Z","venue_name":"The Palace Theatre Albany","address":"19 Clinton Ave","city":"Albany","zip":"12207","latitude":40.69729,"longitude":-73.9693099},{"title":"Shen Yun","created_by":"TicketMaster","category":"Arts & Theater","start_date":"2016-04-24T05:30:00.000Z","venue_name":"Shea's Performing Arts Center","address":"646 Main Street","city":"Buffalo","zip":"14202","latitude":40.7650231,"longitude":-73.9468546},{"title":"Help! My Husband Has Gone Missing: My Daughter Is Getting Married & I","created_by":"TicketMaster","category":"Arts & Theater","start_date":"2016-04-24T06:00:00.000Z","venue_name":"Smith Theatre","address":"660 Main Street","city":"Buffalo","zip":"14202","latitude":40.7651772,"longitude":-73.9467174},{"title":"Rochester Knighthawks vs. Buffalo Bandits","created_by":"TicketMaster","category":"Sports","start_date":"2016-04-24T06:00:00.000Z","venue_name":"Blue Cross Arena","address":"One War Memorial Square","city":"Rochester","zip":"14614","latitude":42.4491717,"longitude":-75.0612675},{"title":"An Evening with Bat McGrath","created_by":"TicketMaster","category":"Music","start_date":"2016-04-24T06:00:00.000Z","venue_name":"Lovin' Cup","address":"300 Park Point Dr., Suite 101","city":"Rochester","zip":"14623","latitude":40.7633907,"longitude":-73.83587770000001},{"title":"Stomp","created_by":"TicketMaster","category":"Arts & Theater","start_date":"2016-04-24T06:00:00.000Z","venue_name":"Rochester Auditorium Theatre","address":"885 East Main Street","city":"Rochester","zip":"14605","latitude":40.7572391,"longitude":-73.95347009999999},{"title":"Avenue Q","created_by":"TicketMaster","category":"Arts & Theater","start_date":"2016-04-24T06:00:00.000Z","venue_name":"710 Main Street","address":"710 Main St","city":"Buffalo","zip":"14202","latitude":40.7657274,"longitude":-73.9462272},{"title":"The Church","created_by":"TicketMaster","category":"Music","start_date":"2016-04-24T06:00:00.000Z","venue_name":"Tralf","address":"622 Main St","city":"Buffalo","zip":"14202","latitude":40.7648625,"longitude":-73.9469977},{"title":"WXPN Welcomes Father John Misty","created_by":"TicketMaster","category":"Music","start_date":"2016-04-24T06:00:00.000Z","venue_name":"The Fillmore Philadelphia","address":"29 E Allen Street","city":"Philadelphia","zip":"19123","latitude":40.71581399999999,"longitude":-73.992548},{"title":"Polica, Mothxr","created_by":"TicketMaster","category":"Music","start_date":"2016-04-24T07:00:00.000Z","venue_name":"Warsaw","address":"261 Driggs Ave ","city":"Brooklyn","zip":"11222","latitude":40.7224876,"longitude":-73.94839189999999},{"title":"Shen Yun","created_by":"TicketMaster","category":"Arts & Theater","start_date":"2016-04-25T00:00:00.000Z","venue_name":"Shea's Performing Arts Center","address":"646 Main Street","city":"Buffalo","zip":"14202","latitude":40.7650231,"longitude":-73.9468546},{"title":"Avenue Q","created_by":"TicketMaster","category":"Arts & Theater","start_date":"2016-04-25T00:00:00.000Z","venue_name":"710 Main Street","address":"710 Main St","city":"Buffalo","zip":"14202","latitude":40.7657274,"longitude":-73.9462272},{"title":"Help! My Husband Has Gone Missing: My Daughter Is Getting Married & I","created_by":"TicketMaster","category":"Arts & Theater","start_date":"2016-04-25T00:00:00.000Z","venue_name":"Smith Theatre","address":"660 Main Street","city":"Buffalo","zip":"14202","latitude":40.7651772,"longitude":-73.9467174},{"title":"Rochester Razorsharks vs. Lake Michigan Admirals","created_by":"TicketMaster","category":"Sports","start_date":"2016-04-25T03:05:00.000Z","venue_name":"Blue Cross Arena","address":"One War Memorial Square","city":"Rochester","zip":"14614","latitude":42.4491717,"longitude":-75.0612675},{"title":"Noah Gundersen","created_by":"TicketMaster","category":"Music","start_date":"2016-04-25T06:00:00.000Z","venue_name":"Tralf","address":"622 Main St","city":"Buffalo","zip":"14202","latitude":40.7648625,"longitude":-73.9469977},{"title":"Stick Men","created_by":"TicketMaster","category":"Music","start_date":"2016-04-25T06:00:00.000Z","venue_name":"Lovin' Cup","address":"300 Park Point Dr., Suite 101","city":"Rochester","zip":"14623","latitude":40.7633907,"longitude":-73.83587770000001},{"title":"Stop Making Sense","created_by":"TicketMaster","category":"Miscellaneous","start_date":"2016-04-26T05:00:00.000Z","venue_name":"The Palace Theatre Albany","address":"19 Clinton Ave","city":"Albany","zip":"12207","latitude":40.69729,"longitude":-73.9693099},{"title":"Stick Men","created_by":"TicketMaster","category":"Music","start_date":"2016-04-26T06:00:00.000Z","venue_name":"Lovin' Cup","address":"300 Park Point Dr., Suite 101","city":"Rochester","zip":"14623","latitude":40.7633907,"longitude":-73.83587770000001},{"title":"Father","created_by":"TicketMaster","category":"Music","start_date":"2016-04-26T06:00:00.000Z","venue_name":"The Foundry","address":"1000 Frankford Ave","city":"Philadelphia","zip":"19125","latitude":40.7036259,"longitude":-73.3606554},{"title":"Basement","created_by":"TicketMaster","category":"Music","start_date":"2016-04-27T04:00:00.000Z","venue_name":"Upstate Concert Hall","address":"1208 Route 146","city":"Clifton Park","zip":"12065","latitude":40.827661,"longitude":-73.9512653},{"title":"Alton Brown","created_by":"TicketMaster","category":"Miscellaneous","start_date":"2016-04-27T06:00:00.000Z","venue_name":"The Oncenter Crouse Hinds Theater","address":"411 Montgomery Street","city":"Syracuse","zip":"13202","latitude":40.66542829999999,"longitude":-73.95113700000002},{"title":"L.A. Guns","created_by":"TicketMaster","category":"Music","start_date":"2016-04-27T06:00:00.000Z","venue_name":"Tralf","address":"622 Main St","city":"Buffalo","zip":"14202","latitude":40.7648625,"longitude":-73.9469977},{"title":"MINIONS","created_by":"TicketMaster","category":"Family","start_date":"2016-04-28T01:00:00.000Z","venue_name":"The Palace Theatre Albany","address":"19 Clinton Ave","city":"Albany","zip":"12207","latitude":40.69729,"longitude":-73.9693099},{"title":"American Authors","created_by":"TicketMaster","category":"Music","start_date":"2016-04-28T05:00:00.000Z","venue_name":"The Hollow","address":"79 North Pearl St","city":"Albany","zip":"12207","latitude":40.7040869,"longitude":-74.01041049999999},{"title":"Chris Webby","created_by":"TicketMaster","category":"Music","start_date":"2016-04-28T05:00:00.000Z","venue_name":"Upstate Concert Hall","address":"1208 Route 146","city":"Clifton Park","zip":"12065","latitude":40.827661,"longitude":-73.9512653},{"title":"Travis Mills","created_by":"TicketMaster","category":"Music","start_date":"2016-04-28T06:00:00.000Z","venue_name":"The Foundry","address":"1000 Frankford Ave","city":"Philadelphia","zip":"19125","latitude":40.7036259,"longitude":-73.3606554},{"title":"Robin Trower","created_by":"TicketMaster","category":"Music","start_date":"2016-04-28T06:00:00.000Z","venue_name":"Hart Theatre at the Egg","address":"Po Box 2065","city":"Albany","zip":"12220","latitude":40.7127837,"longitude":-74.0059413},{"title":"Kevin Spacey - Distinguished Speaker Series UB Alumni Arena","created_by":"TicketMaster","category":"Miscellaneous","start_date":"2016-04-28T06:00:00.000Z","venue_name":"University at Buffalo - Alumni Arena","address":"108 Alumni Arena, University at Buffalo - North Campus","city":"Buffalo","zip":"14260","latitude":42.88644679999999,"longitude":-78.8783689},{"title":"Project/Object","created_by":"TicketMaster","category":"Music","start_date":"2016-04-28T06:00:00.000Z","venue_name":"Tralf","address":"622 Main St","city":"Buffalo","zip":"14202","latitude":40.7648625,"longitude":-73.9469977},{"title":"The Besnard Lakes","created_by":"TicketMaster","category":"Music","start_date":"2016-04-29T06:00:00.000Z","venue_name":"Tralf","address":"622 Main St","city":"Buffalo","zip":"14202","latitude":40.7648625,"longitude":-73.9469977},{"title":"Sebastian Maniscalco","created_by":"TicketMaster","category":"Arts & Theater","start_date":"2016-04-29T06:00:00.000Z","venue_name":"University At Buffalo Center for the Arts","address":"103 Center for the Arts","city":"Buffalo","zip":"14260","latitude":43.0009982,"longitude":-78.78292069999999},{"title":"Robin Trower","created_by":"TicketMaster","category":"Music","start_date":"2016-04-29T06:00:00.000Z","venue_name":"Bears Den At Seneca Niagara Casino & Hotel","address":"310 4th Street","city":"Niagara Falls","zip":"14303","latitude":40.721866,"longitude":-73.979783},{"title":"Sesame Street Live: Let's Dance!","created_by":"TicketMaster","category":"Family","start_date":"2016-04-29T20:30:00.000Z","venue_name":"The Palace Theatre Albany","address":"19 Clinton Ave","city":"Albany","zip":"12207","latitude":40.69729,"longitude":-73.9693099},{"title":"Discover the Dinosaurs Unleashed","created_by":"TicketMaster","category":"Family","start_date":"2016-04-30T00:00:00.000Z","venue_name":"The Oncenter Convention Center","address":"800 South State Street","city":"Syracuse","zip":"13202","latitude":40.6852758,"longitude":-73.9783657},{"title":"Sesame Street Live: Let's Dance!","created_by":"TicketMaster","category":"Family","start_date":"2016-04-30T04:30:00.000Z","venue_name":"The Palace Theatre Albany","address":"19 Clinton Ave","city":"Albany","zip":"12207","latitude":40.69729,"longitude":-73.9693099},{"title":"Royal Hanneford Circus","created_by":"TicketMaster","category":"Family","start_date":"2016-04-30T05:00:00.000Z","venue_name":"Floyd L. Maines Veterans Memorial Arena","address":"1 Stuart Street","city":"Binghamton","zip":"13901","latitude":40.6796926,"longitude":-73.9047606},{"title":"Block Party 2016","created_by":"TicketMaster","category":"Music","start_date":"2016-04-30T05:15:00.000Z","venue_name":"Carrier Dome","address":"900 Irving Avenue","city":"Syracuse","zip":"13244","latitude":40.6919297,"longitude":-73.9021245},{"title":"Steely Dan","created_by":"TicketMaster","category":"Music","start_date":"2016-04-30T06:00:00.000Z","venue_name":"The Seneca Niagara Events Center at Seneca Niagara Casino","address":"310 4th Street","city":"Niagara Falls","zip":"14303","latitude":40.721866,"longitude":-73.979783},{"title":"Get the Led Out","created_by":"TicketMaster","category":"Music","start_date":"2016-04-30T06:00:00.000Z","venue_name":"Turning Stone Resort & Casino Showroom","address":"5218 Patrick Road","city":"Verona","zip":"13478","latitude":43.115301,"longitude":-75.58884789999999},{"title":"REVEREND HORTON HEAT with Unknown Hinson, Nashville P***y, Lucky Tubb","created_by":"TicketMaster","category":"Music","start_date":"2016-04-30T06:00:00.000Z","venue_name":"Tralf","address":"622 Main St","city":"Buffalo","zip":"14202","latitude":40.7648625,"longitude":-73.9469977},{"title":"The Lawsuits","created_by":"TicketMaster","category":"Music","start_date":"2016-04-30T07:00:00.000Z","venue_name":"The Foundry","address":"1000 Frankford Ave","city":"Philadelphia","zip":"19125","latitude":40.7036259,"longitude":-73.3606554},{"title":"Body Rock: 15 Year Anniversary with special guest DJ Day","created_by":"TicketMaster","category":"Music","start_date":"2016-04-30T07:00:00.000Z","venue_name":"The Fillmore Philadelphia","address":"29 E Allen Street","city":"Philadelphia","zip":"19123","latitude":40.71581399999999,"longitude":-73.992548},{"title":"Discover the Dinosaurs Unleashed","created_by":"TicketMaster","category":"Family","start_date":"2016-04-30T20:00:00.000Z","venue_name":"The Oncenter Convention Center","address":"800 South State Street","city":"Syracuse","zip":"13202","latitude":40.6852758,"longitude":-73.9783657},{"title":"Sesame Street Live: Let's Dance!","created_by":"TicketMaster","category":"Family","start_date":"2016-04-30T20:30:00.000Z","venue_name":"The Palace Theatre Albany","address":"19 Clinton Ave","city":"Albany","zip":"12207","latitude":40.69729,"longitude":-73.9693099},{"title":"Royal Hanneford Circus","created_by":"TicketMaster","category":"Family","start_date":"2016-04-30T20:30:00.000Z","venue_name":"Floyd L. Maines Veterans Memorial Arena","address":"1 Stuart Street","city":"Binghamton","zip":"13901","latitude":40.6796926,"longitude":-73.9047606},{"title":"Sesame Street Live: Let's Dance!","created_by":"TicketMaster","category":"Family","start_date":"2016-05-01T00:00:00.000Z","venue_name":"The Palace Theatre Albany","address":"19 Clinton Ave","city":"Albany","zip":"12207","latitude":40.69729,"longitude":-73.9693099},{"title":"Royal Hanneford Circus","created_by":"TicketMaster","category":"Family","start_date":"2016-05-01T01:00:00.000Z","venue_name":"Floyd L. Maines Veterans Memorial Arena","address":"1 Stuart Street","city":"Binghamton","zip":"13901","latitude":40.6796926,"longitude":-73.9047606},{"title":"Sesame Street Live: Let's Dance!","created_by":"TicketMaster","category":"Family","start_date":"2016-05-01T03:30:00.000Z","venue_name":"The Palace Theatre Albany","address":"19 Clinton Ave","city":"Albany","zip":"12207","latitude":40.69729,"longitude":-73.9693099},{"title":"Royal Hanneford Circus","created_by":"TicketMaster","category":"Family","start_date":"2016-05-01T05:00:00.000Z","venue_name":"Floyd L. Maines Veterans Memorial Arena","address":"1 Stuart Street","city":"Binghamton","zip":"13901","latitude":40.6796926,"longitude":-73.9047606},{"title":"Caged Chaos 12","created_by":"TicketMaster","category":"Sports","start_date":"2016-05-01T05:00:00.000Z","venue_name":"Marina Jeep Arena at The Main Street Armory","address":"900 E Main Street","city":"Rochester","zip":"14605","latitude":40.7703199,"longitude":-73.94246729999999},{"title":"Rochester Knighthawks vs. Saskatchewan Rush","created_by":"TicketMaster","category":"Sports","start_date":"2016-05-01T05:30:00.000Z","venue_name":"Blue Cross Arena","address":"One War Memorial Square","city":"Rochester","zip":"14614","latitude":42.4491717,"longitude":-75.0612675},{"title":"An Evening With A Flock Of Seagulls","created_by":"TicketMaster","category":"Music","start_date":"2016-05-01T06:00:00.000Z","venue_name":"Bears Den At Seneca Niagara Casino & Hotel","address":"310 4th Street","city":"Niagara Falls","zip":"14303","latitude":40.721866,"longitude":-73.979783},{"title":"Strictly Hip","created_by":"TicketMaster","category":"Music","start_date":"2016-05-01T06:00:00.000Z","venue_name":"Tralf","address":"622 Main St","city":"Buffalo","zip":"14202","latitude":40.7648625,"longitude":-73.9469977},{"title":"The Wild Feathers","created_by":"TicketMaster","category":"Music","start_date":"2016-05-01T06:00:00.000Z","venue_name":"The Foundry","address":"1000 Frankford Ave","city":"Philadelphia","zip":"19125","latitude":40.7036259,"longitude":-73.3606554},{"title":"Discover the Dinosaurs Unleashed","created_by":"TicketMaster","category":"Family","start_date":"2016-05-01T20:00:00.000Z","venue_name":"The Oncenter Convention Center","address":"800 South State Street","city":"Syracuse","zip":"13202","latitude":40.6852758,"longitude":-73.9783657},{"title":"Sesame Street Live: Let's Dance!","created_by":"TicketMaster","category":"Family","start_date":"2016-05-01T23:00:00.000Z","venue_name":"The Palace Theatre Albany","address":"19 Clinton Ave","city":"Albany","zip":"12207","latitude":40.69729,"longitude":-73.9693099},{"title":"Royal Hanneford Circus","created_by":"TicketMaster","category":"Family","start_date":"2016-05-02T01:00:00.000Z","venue_name":"Floyd L. Maines Veterans Memorial Arena","address":"1 Stuart Street","city":"Binghamton","zip":"13901","latitude":40.6796926,"longitude":-73.9047606},{"title":"Lets Dance - The Tour 2016 feat. Silento","created_by":"TicketMaster","category":"Music","start_date":"2016-05-02T02:00:00.000Z","venue_name":"The Fillmore Philadelphia","address":"29 E Allen Street","city":"Philadelphia","zip":"19123","latitude":40.71581399999999,"longitude":-73.992548},{"title":"Youth Code","created_by":"TicketMaster","category":"Music","start_date":"2016-05-02T04:30:00.000Z","venue_name":"The Foundry","address":"1000 Frankford Ave","city":"Philadelphia","zip":"19125","latitude":40.7036259,"longitude":-73.3606554},{"title":"Expansions - the Dave Liebman Group","created_by":"TicketMaster","category":"Music","start_date":"2016-05-02T05:00:00.000Z","venue_name":"Lovin' Cup","address":"300 Park Point Dr., Suite 101","city":"Rochester","zip":"14623","latitude":40.7633907,"longitude":-73.83587770000001},{"title":"Questlove Supreme","created_by":"TicketMaster","category":"Music","start_date":"2016-05-02T09:00:00.000Z","venue_name":"The Foundry","address":"1000 Frankford Ave","city":"Philadelphia","zip":"19125","latitude":40.7036259,"longitude":-73.3606554},{"title":"Clifford the Big Red Dog","created_by":"TicketMaster","category":"Family","start_date":"2016-05-03T01:00:00.000Z","venue_name":"The Stanley","address":"259 Genesee Street","city":"Utica","zip":"13501","latitude":40.5531014,"longitude":-74.16522970000001},{"title":"Clifford the Big Red Dog","created_by":"TicketMaster","category":"Family","start_date":"2016-05-03T04:30:00.000Z","venue_name":"The Stanley","address":"259 Genesee Street","city":"Utica","zip":"13501","latitude":40.5531014,"longitude":-74.16522970000001},{"title":"Rear Window","created_by":"TicketMaster","category":"Miscellaneous","start_date":"2016-05-03T05:00:00.000Z","venue_name":"The Palace Theatre Albany","address":"19 Clinton Ave","city":"Albany","zip":"12207","latitude":40.69729,"longitude":-73.9693099},{"title":"Eleven Seven Music Presents: Hellyeah We're All In This Together Tour","created_by":"TicketMaster","category":"Music","start_date":"2016-05-04T04:00:00.000Z","venue_name":"Upstate Concert Hall","address":"1208 Route 146","city":"Clifton Park","zip":"12065","latitude":40.827661,"longitude":-73.9512653},{"title":"Dirty Dancing (Touring)","created_by":"TicketMaster","category":"Arts & Theater","start_date":"2016-05-04T05:30:00.000Z","venue_name":"Shea's Performing Arts Center","address":"646 Main Street","city":"Buffalo","zip":"14202","latitude":40.7650231,"longitude":-73.9468546},{"title":"Riverdance","created_by":"TicketMaster","category":"Arts & Theater","start_date":"2016-05-04T05:30:00.000Z","venue_name":"Broome County Forum","address":"236 Washington Street","city":"Binghamton","zip":"13901","latitude":40.7105241,"longitude":-74.0134783},{"title":"Borns","created_by":"TicketMaster","category":"Music","start_date":"2016-05-05T05:00:00.000Z","venue_name":"Upstate Concert Hall","address":"1208 Route 146","city":"Clifton Park","zip":"12065","latitude":40.827661,"longitude":-73.9512653},{"title":"Cirque du Soleil: OVO","created_by":"TicketMaster","category":"Family","start_date":"2016-05-05T05:30:00.000Z","venue_name":"The Oncenter War Memorial Arena","address":"515 Montgomery St.","city":"Syracuse","zip":"13202","latitude":40.6652333,"longitude":-73.9475446},{"title":"Dirty Dancing (Touring)","created_by":"TicketMaster","category":"Arts & Theater","start_date":"2016-05-05T05:30:00.000Z","venue_name":"Shea's Performing Arts Center","address":"646 Main Street","city":"Buffalo","zip":"14202","latitude":40.7650231,"longitude":-73.9468546},{"title":"Riverdance","created_by":"TicketMaster","category":"Arts & Theater","start_date":"2016-05-05T05:30:00.000Z","venue_name":"Broome County Forum","address":"236 Washington Street","city":"Binghamton","zip":"13901","latitude":40.7105241,"longitude":-74.0134783},{"title":"The Reverend Peyton's Big Damn Band","created_by":"TicketMaster","category":"Music","start_date":"2016-05-05T06:00:00.000Z","venue_name":"Tralf","address":"622 Main St","city":"Buffalo","zip":"14202","latitude":40.7648625,"longitude":-73.9469977},{"title":"Otep","created_by":"TicketMaster","category":"Music","start_date":"2016-05-06T03:30:00.000Z","venue_name":"Upstate Concert Hall","address":"1208 Route 146","city":"Clifton Park","zip":"12065","latitude":40.827661,"longitude":-73.9512653},{"title":"The Sheepdogs","created_by":"TicketMaster","category":"Music","start_date":"2016-05-06T05:00:00.000Z","venue_name":"The Hollow","address":"79 North Pearl St","city":"Albany","zip":"12207","latitude":40.7040869,"longitude":-74.01041049999999},{"title":"Snarky Puppy","created_by":"TicketMaster","category":"Music","start_date":"2016-05-06T05:00:00.000Z","venue_name":"Landmark Theatre","address":"362 South Salina Street","city":"Syracuse","zip":"13202","latitude":43.047358,"longitude":-76.152982},{"title":"Rbtl's Stars Of Tomorrow","created_by":"TicketMaster","category":"Arts & Theater","start_date":"2016-05-06T05:00:00.000Z","venue_name":"Rochester Auditorium Theatre","address":"885 East Main Street","city":"Rochester","zip":"14605","latitude":40.7572391,"longitude":-73.95347009999999},{"title":"Dirty Dancing (Touring)","created_by":"TicketMaster","category":"Arts & Theater","start_date":"2016-05-06T05:30:00.000Z","venue_name":"Shea's Performing Arts Center","address":"646 Main Street","city":"Buffalo","zip":"14202","latitude":40.7650231,"longitude":-73.9468546},{"title":"Cirque du Soleil: OVO","created_by":"TicketMaster","category":"Family","start_date":"2016-05-06T05:30:00.000Z","venue_name":"The Oncenter War Memorial Arena","address":"515 Montgomery St.","city":"Syracuse","zip":"13202","latitude":40.6652333,"longitude":-73.9475446},{"title":"Riverdance","created_by":"TicketMaster","category":"Arts & Theater","start_date":"2016-05-06T05:30:00.000Z","venue_name":"Broome County Forum","address":"236 Washington Street","city":"Binghamton","zip":"13901","latitude":40.7105241,"longitude":-74.0134783},{"title":"Amy Schumer","created_by":"TicketMaster","category":"Arts & Theater","start_date":"2016-05-06T06:00:00.000Z","venue_name":"Times Union Center","address":"51 South Pearl Street","city":"Albany","zip":"12207","latitude":40.7034388,"longitude":-74.0116527},{"title":"Mighty #Cinco","created_by":"TicketMaster","category":"Music","start_date":"2016-05-06T07:00:00.000Z","venue_name":"The Foundry","address":"1000 Frankford Ave","city":"Philadelphia","zip":"19125","latitude":40.7036259,"longitude":-73.3606554},{"title":"An Evening with Jon Brion (Solo,Live)","created_by":"TicketMaster","category":"Music","start_date":"2016-05-07T05:00:00.000Z","venue_name":"Warsaw","address":"261 Driggs Ave ","city":"Brooklyn","zip":"11222","latitude":40.7224876,"longitude":-73.94839189999999},{"title":"Cirque du Soleil: OVO","created_by":"TicketMaster","category":"Family","start_date":"2016-05-07T05:30:00.000Z","venue_name":"The Oncenter War Memorial Arena","address":"515 Montgomery St.","city":"Syracuse","zip":"13202","latitude":40.6652333,"longitude":-73.9475446},{"title":"Dirty Dancing (Touring)","created_by":"TicketMaster","category":"Arts & Theater","start_date":"2016-05-07T06:00:00.000Z","venue_name":"Shea's Performing Arts Center","address":"646 Main Street","city":"Buffalo","zip":"14202","latitude":40.7650231,"longitude":-73.9468546},{"title":"WXPN Welcomes Ben Folds","created_by":"TicketMaster","category":"Music","start_date":"2016-05-07T06:00:00.000Z","venue_name":"The Fillmore Philadelphia","address":"29 E Allen Street","city":"Philadelphia","zip":"19123","latitude":40.71581399999999,"longitude":-73.992548},{"title":"Post Malone with special guest Desiigner","created_by":"TicketMaster","category":"Music","start_date":"2016-05-07T06:00:00.000Z","venue_name":"The Palace Theatre Albany","address":"19 Clinton Ave","city":"Albany","zip":"12207","latitude":40.69729,"longitude":-73.9693099},{"title":"Amy Schumer","created_by":"TicketMaster","category":"Arts & Theater","start_date":"2016-05-07T06:00:00.000Z","venue_name":"Blue Cross Arena","address":"One War Memorial Square","city":"Rochester","zip":"14614","latitude":42.4491717,"longitude":-75.0612675},{"title":"Syracuse University Mens Lacrosse vs. Colgate University Men's Lacrosse","created_by":"TicketMaster","category":"Sports","start_date":"2016-05-07T23:00:00.000Z","venue_name":"Carrier Dome","address":"900 Irving Avenue","city":"Syracuse","zip":"13244","latitude":40.6919297,"longitude":-73.9021245},{"title":"Dirty Dancing (Touring)","created_by":"TicketMaster","category":"Arts & Theater","start_date":"2016-05-08T00:00:00.000Z","venue_name":"Shea's Performing Arts Center","address":"646 Main Street","city":"Buffalo","zip":"14202","latitude":40.7650231,"longitude":-73.9468546},{"title":"Cirque du Soleil: OVO","created_by":"TicketMaster","category":"Family","start_date":"2016-05-08T02:00:00.000Z","venue_name":"The Oncenter War Memorial Arena","address":"515 Montgomery St.","city":"Syracuse","zip":"13202","latitude":40.6652333,"longitude":-73.9475446},{"title":"The Riddle Box Tour Featuring Insane Clown Posse","created_by":"TicketMaster","category":"Music","start_date":"2016-05-08T04:00:00.000Z","venue_name":"Upstate Concert Hall","address":"1208 Route 146","city":"Clifton Park","zip":"12065","latitude":40.827661,"longitude":-73.9512653},{"title":"Teen Choice Dancer Chloe Lukasiak","created_by":"TicketMaster","category":"Arts & Theater","start_date":"2016-05-08T05:00:00.000Z","venue_name":"Broome County Forum","address":"236 Washington Street","city":"Binghamton","zip":"13901","latitude":40.7105241,"longitude":-74.0134783},{"title":"Steve Miller Band","created_by":"TicketMaster","category":"Music","start_date":"2016-05-08T05:00:00.000Z","venue_name":"The Seneca Allegany Events Center at Seneca Allegany Casino","address":"777 Seneca Allegany Blvd","city":"Salamanca","zip":"14779","latitude":42.1521391,"longitude":-78.7483669},{"title":"Half Moon Run","created_by":"TicketMaster","category":"Music","start_date":"2016-05-08T05:00:00.000Z","venue_name":"The Foundry","address":"1000 Frankford Ave","city":"Philadelphia","zip":"19125","latitude":40.7036259,"longitude":-73.3606554},{"title":"The Naked Magic Show","created_by":"TicketMaster","category":"Arts & Theater","start_date":"2016-05-08T05:30:00.000Z","venue_name":"710 Main Street","address":"710 Main St","city":"Buffalo","zip":"14202","latitude":40.7657274,"longitude":-73.9462272},{"title":"Cirque du Soleil: OVO","created_by":"TicketMaster","category":"Family","start_date":"2016-05-08T05:30:00.000Z","venue_name":"The Oncenter War Memorial Arena","address":"515 Montgomery St.","city":"Syracuse","zip":"13202","latitude":40.6652333,"longitude":-73.9475446},{"title":"Amy Schumer","created_by":"TicketMaster","category":"Arts & Theater","start_date":"2016-05-08T06:00:00.000Z","venue_name":"First Niagara Center","address":"One Seymour H. Knox III Plaza","city":"Buffalo","zip":"14203","latitude":42.8750926,"longitude":-78.8765833},{"title":"Dirty Dancing (Touring)","created_by":"TicketMaster","category":"Arts & Theater","start_date":"2016-05-08T06:00:00.000Z","venue_name":"Shea's Performing Arts Center","address":"646 Main Street","city":"Buffalo","zip":"14202","latitude":40.7650231,"longitude":-73.9468546},{"title":"Men of Desire","created_by":"TicketMaster","category":"Music","start_date":"2016-05-08T06:00:00.000Z","venue_name":"Turning Stone Resort & Casino Showroom","address":"5218 Patrick Road","city":"Verona","zip":"13478","latitude":43.115301,"longitude":-75.58884789999999},{"title":"The Naked Magic Show","created_by":"TicketMaster","category":"Arts & Theater","start_date":"2016-05-08T08:30:00.000Z","venue_name":"710 Main Street","address":"710 Main St","city":"Buffalo","zip":"14202","latitude":40.7657274,"longitude":-73.9462272},{"title":"Jacquees Performing Live","created_by":"TicketMaster","category":"Music","start_date":"2016-05-08T08:45:00.000Z","venue_name":"Marina Jeep Arena at The Main Street Armory","address":"900 E Main Street","city":"Rochester","zip":"14605","latitude":40.7703199,"longitude":-73.94246729999999},{"title":"Cirque du Soleil: OVO","created_by":"TicketMaster","category":"Family","start_date":"2016-05-08T23:30:00.000Z","venue_name":"The Oncenter War Memorial Arena","address":"515 Montgomery St.","city":"Syracuse","zip":"13202","latitude":40.6652333,"longitude":-73.9475446},{"title":"Dirty Dancing (Touring)","created_by":"TicketMaster","category":"Arts & Theater","start_date":"2016-05-09T00:00:00.000Z","venue_name":"Shea's Performing Arts Center","address":"646 Main Street","city":"Buffalo","zip":"14202","latitude":40.7650231,"longitude":-73.9468546},{"title":"Cirque du Soleil: OVO","created_by":"TicketMaster","category":"Family","start_date":"2016-05-09T03:00:00.000Z","venue_name":"The Oncenter War Memorial Arena","address":"515 Montgomery St.","city":"Syracuse","zip":"13202","latitude":40.6652333,"longitude":-73.9475446},{"title":"Dirty Dancing (Touring)","created_by":"TicketMaster","category":"Arts & Theater","start_date":"2016-05-09T05:00:00.000Z","venue_name":"Shea's Performing Arts Center","address":"646 Main Street","city":"Buffalo","zip":"14202","latitude":40.7650231,"longitude":-73.9468546},{"title":"Sunflower Bean","created_by":"TicketMaster","category":"Music","start_date":"2016-05-09T05:30:00.000Z","venue_name":"Mohawk Place","address":"47 East Mohawk Street","city":"Buffalo","zip":"14203","latitude":43.4561242,"longitude":-76.50281489999999},{"title":"John Hiatt","created_by":"TicketMaster","category":"Music","start_date":"2016-05-09T05:30:00.000Z","venue_name":"Asbury Hall at Babeville","address":"341 Delaware Ave","city":"Buffalo","zip":"14202","latitude":40.5888497,"longitude":-74.089488},{"title":"Dirty Dancing (Touring)","created_by":"TicketMaster","category":"Arts & Theater","start_date":"2016-05-11T05:30:00.000Z","venue_name":"Rochester Auditorium Theatre","address":"885 East Main Street","city":"Rochester","zip":"14605","latitude":40.7572391,"longitude":-73.95347009999999},{"title":"Tedeschi Trucks Band","created_by":"TicketMaster","category":"Music","start_date":"2016-05-11T05:30:00.000Z","venue_name":"The Oncenter Crouse Hinds Theater","address":"411 Montgomery Street","city":"Syracuse","zip":"13202","latitude":40.66542829999999,"longitude":-73.95113700000002},{"title":"Protomartyr","created_by":"TicketMaster","category":"Music","start_date":"2016-05-11T06:00:00.000Z","venue_name":"Mohawk Place","address":"47 East Mohawk Street","city":"Buffalo","zip":"14203","latitude":43.4561242,"longitude":-76.50281489999999},{"title":"Cage the Elephant","created_by":"TicketMaster","category":"Music","start_date":"2016-05-12T05:00:00.000Z","venue_name":"Times Union Center","address":"51 South Pearl Street","city":"Albany","zip":"12207","latitude":40.7034388,"longitude":-74.0116527},{"title":"Twelve Beers of Summer, What You Should Be Drinking This Summer","created_by":"TicketMaster","category":"Miscellaneous","start_date":"2016-05-12T05:00:00.000Z","venue_name":"Lovin' Cup","address":"300 Park Point Dr., Suite 101","city":"Rochester","zip":"14623","latitude":40.7633907,"longitude":-73.83587770000001},{"title":"Dirty Dancing (Touring)","created_by":"TicketMaster","category":"Arts & Theater","start_date":"2016-05-12T05:30:00.000Z","venue_name":"Rochester Auditorium Theatre","address":"885 East Main Street","city":"Rochester","zip":"14605","latitude":40.7572391,"longitude":-73.95347009999999},{"title":"Love Letters","created_by":"TicketMaster","category":"Arts & Theater","start_date":"2016-05-12T05:30:00.000Z","venue_name":"710 Main Street","address":"710 Main St","city":"Buffalo","zip":"14202","latitude":40.7657274,"longitude":-73.9462272},{"title":"Speedy Ortiz / Hop Along, Two Inch Astronaut","created_by":"TicketMaster","category":"Music","start_date":"2016-05-12T06:00:00.000Z","venue_name":"Warsaw","address":"261 Driggs Ave ","city":"Brooklyn","zip":"11222","latitude":40.7224876,"longitude":-73.94839189999999},{"title":"Rogue Wave","created_by":"TicketMaster","category":"Music","start_date":"2016-05-12T06:00:00.000Z","venue_name":"Tralf","address":"622 Main St","city":"Buffalo","zip":"14202","latitude":40.7648625,"longitude":-73.9469977},{"title":"Love Letters","created_by":"TicketMaster","category":"Arts & Theater","start_date":"2016-05-12T23:00:00.000Z","venue_name":"710 Main Street","address":"710 Main St","city":"Buffalo","zip":"14202","latitude":40.7657274,"longitude":-73.9462272},{"title":"Shea's Wine, Food & Beer Fest","created_by":"TicketMaster","category":"Miscellaneous","start_date":"2016-05-13T03:30:00.000Z","venue_name":"Shea's Performing Arts Center","address":"646 Main Street","city":"Buffalo","zip":"14202","latitude":40.7650231,"longitude":-73.9468546},{"title":"The Oak Ridge Boys","created_by":"TicketMaster","category":"Music","start_date":"2016-05-13T05:30:00.000Z","venue_name":"Landmark Theatre","address":"362 South Salina Street","city":"Syracuse","zip":"13202","latitude":43.047358,"longitude":-76.152982},{"title":"Love Letters","created_by":"TicketMaster","category":"Arts & Theater","start_date":"2016-05-13T05:30:00.000Z","venue_name":"710 Main Street","address":"710 Main St","city":"Buffalo","zip":"14202","latitude":40.7657274,"longitude":-73.9462272},{"title":"Dirty Dancing (Touring)","created_by":"TicketMaster","category":"Arts & Theater","start_date":"2016-05-13T05:30:00.000Z","venue_name":"Rochester Auditorium Theatre","address":"885 East Main Street","city":"Rochester","zip":"14605","latitude":40.7572391,"longitude":-73.95347009999999},{"title":"Keb' Mo'","created_by":"TicketMaster","category":"Music","start_date":"2016-05-13T06:00:00.000Z","venue_name":"Turning Stone Resort & Casino Showroom","address":"5218 Patrick Road","city":"Verona","zip":"13478","latitude":43.115301,"longitude":-75.58884789999999},{"title":"Bernhoft and the Shudderbugs","created_by":"TicketMaster","category":"Music","start_date":"2016-05-13T06:00:00.000Z","venue_name":"The Foundry","address":"1000 Frankford Ave","city":"Philadelphia","zip":"19125","latitude":40.7036259,"longitude":-73.3606554},{"title":"Loosen the Bible Belt Tour","created_by":"TicketMaster","category":"Arts & Theater","start_date":"2016-05-13T06:00:00.000Z","venue_name":"Asbury Hall at Babeville","address":"341 Delaware Ave","city":"Buffalo","zip":"14202","latitude":40.5888497,"longitude":-74.089488},{"title":"The Oak Ridge Boys","created_by":"TicketMaster","category":"Music","start_date":"2016-05-14T05:30:00.000Z","venue_name":"Broome County Forum","address":"236 Washington Street","city":"Binghamton","zip":"13901","latitude":40.7105241,"longitude":-74.0134783},{"title":"Hayes Carll","created_by":"TicketMaster","category":"Music","start_date":"2016-05-14T06:00:00.000Z","venue_name":"Tralf","address":"622 Main St","city":"Buffalo","zip":"14202","latitude":40.7648625,"longitude":-73.9469977},{"title":"Foreigner","created_by":"TicketMaster","category":"Music","start_date":"2016-05-14T06:00:00.000Z","venue_name":"The Seneca Niagara Events Center at Seneca Niagara Casino","address":"310 4th Street","city":"Niagara Falls","zip":"14303","latitude":40.721866,"longitude":-73.979783},{"title":"Dirty Dancing (Touring)","created_by":"TicketMaster","category":"Arts & Theater","start_date":"2016-05-14T06:00:00.000Z","venue_name":"Rochester Auditorium Theatre","address":"885 East Main Street","city":"Rochester","zip":"14605","latitude":40.7572391,"longitude":-73.95347009999999},{"title":"Love Letters","created_by":"TicketMaster","category":"Arts & Theater","start_date":"2016-05-14T06:00:00.000Z","venue_name":"710 Main Street","address":"710 Main St","city":"Buffalo","zip":"14202","latitude":40.7657274,"longitude":-73.9462272},{"title":"George Thorogood & The Destroyers","created_by":"TicketMaster","category":"Music","start_date":"2016-05-14T06:00:00.000Z","venue_name":"Turning Stone Resort & Casino Showroom","address":"5218 Patrick Road","city":"Verona","zip":"13478","latitude":43.115301,"longitude":-75.58884789999999},{"title":"Day Out with Thomas (TM)","created_by":"TicketMaster","category":"Family","start_date":"2016-05-14T19:15:00.000Z","venue_name":"Medina Railroad Museum","address":"530 West Ave.","city":"Medina","zip":"14103","latitude":40.5820607,"longitude":-73.9718718},{"title":"Day Out with Thomas (TM)","created_by":"TicketMaster","category":"Family","start_date":"2016-05-14T20:00:00.000Z","venue_name":"Medina Railroad Museum","address":"530 West Ave.","city":"Medina","zip":"14103","latitude":40.5820607,"longitude":-73.9718718},{"title":"Sesame Street Live: Let's Dance!","created_by":"TicketMaster","category":"Family","start_date":"2016-05-14T20:30:00.000Z","venue_name":"Landmark Theatre","address":"362 South Salina Street","city":"Syracuse","zip":"13202","latitude":43.047358,"longitude":-76.152982},{"title":"Day Out with Thomas (TM)","created_by":"TicketMaster","category":"Family","start_date":"2016-05-14T20:45:00.000Z","venue_name":"Medina Railroad Museum","address":"530 West Ave.","city":"Medina","zip":"14103","latitude":40.5820607,"longitude":-73.9718718},{"title":"Day Out with Thomas (TM)","created_by":"TicketMaster","category":"Family","start_date":"2016-05-14T21:30:00.000Z","venue_name":"Medina Railroad Museum","address":"530 West Ave.","city":"Medina","zip":"14103","latitude":40.5820607,"longitude":-73.9718718},{"title":"Day Out with Thomas (TM)","created_by":"TicketMaster","category":"Family","start_date":"2016-05-14T22:15:00.000Z","venue_name":"Medina Railroad Museum","address":"530 West Ave.","city":"Medina","zip":"14103","latitude":40.5820607,"longitude":-73.9718718},{"title":"Day Out with Thomas (TM)","created_by":"TicketMaster","category":"Family","start_date":"2016-05-14T23:00:00.000Z","venue_name":"Medina Railroad Museum","address":"530 West Ave.","city":"Medina","zip":"14103","latitude":40.5820607,"longitude":-73.9718718},{"title":"Day Out with Thomas (TM)","created_by":"TicketMaster","category":"Family","start_date":"2016-05-14T23:45:00.000Z","venue_name":"Medina Railroad Museum","address":"530 West Ave.","city":"Medina","zip":"14103","latitude":40.5820607,"longitude":-73.9718718},{"title":"Sesame Street Live: Let's Dance!","created_by":"TicketMaster","category":"Family","start_date":"2016-05-15T00:00:00.000Z","venue_name":"Landmark Theatre","address":"362 South Salina Street","city":"Syracuse","zip":"13202","latitude":43.047358,"longitude":-76.152982},{"title":"Love Letters","created_by":"TicketMaster","category":"Arts & Theater","start_date":"2016-05-15T00:00:00.000Z","venue_name":"710 Main Street","address":"710 Main St","city":"Buffalo","zip":"14202","latitude":40.7657274,"longitude":-73.9462272},{"title":"Dirty Dancing (Touring)","created_by":"TicketMaster","category":"Arts & Theater","start_date":"2016-05-15T00:00:00.000Z","venue_name":"Rochester Auditorium Theatre","address":"885 East Main Street","city":"Rochester","zip":"14605","latitude":40.7572391,"longitude":-73.95347009999999},{"title":"Studio J Presents Rock This Town","created_by":"TicketMaster","category":"Music","start_date":"2016-05-15T00:00:00.000Z","venue_name":"Tralf","address":"622 Main St","city":"Buffalo","zip":"14202","latitude":40.7648625,"longitude":-73.9469977},{"title":"Day Out with Thomas (TM)","created_by":"TicketMaster","category":"Family","start_date":"2016-05-15T00:30:00.000Z","venue_name":"Medina Railroad Museum","address":"530 West Ave.","city":"Medina","zip":"14103","latitude":40.5820607,"longitude":-73.9718718},{"title":"Day Out with Thomas (TM)","created_by":"TicketMaster","category":"Family","start_date":"2016-05-15T01:15:00.000Z","venue_name":"Medina Railroad Museum","address":"530 West Ave.","city":"Medina","zip":"14103","latitude":40.5820607,"longitude":-73.9718718},{"title":"Day Out with Thomas (TM)","created_by":"TicketMaster","category":"Family","start_date":"2016-05-15T02:00:00.000Z","venue_name":"Medina Railroad Museum","address":"530 West Ave.","city":"Medina","zip":"14103","latitude":40.5820607,"longitude":-73.9718718},{"title":"Day Out with Thomas (TM)","created_by":"TicketMaster","category":"Family","start_date":"2016-05-15T02:45:00.000Z","venue_name":"Medina Railroad Museum","address":"530 West Ave.","city":"Medina","zip":"14103","latitude":40.5820607,"longitude":-73.9718718},{"title":"Day Out with Thomas (TM)","created_by":"TicketMaster","category":"Family","start_date":"2016-05-15T03:30:00.000Z","venue_name":"Medina Railroad Museum","address":"530 West Ave.","city":"Medina","zip":"14103","latitude":40.5820607,"longitude":-73.9718718},{"title":"Born Ruffians","created_by":"TicketMaster","category":"Music","start_date":"2016-05-15T04:00:00.000Z","venue_name":"Mohawk Place","address":"47 East Mohawk Street","city":"Buffalo","zip":"14203","latitude":43.4561242,"longitude":-76.50281489999999},{"title":"Kenny Awards Ceremony","created_by":"TicketMaster","category":"Miscellaneous","start_date":"2016-05-15T04:00:00.000Z","venue_name":"Shea's Performing Arts Center","address":"646 Main Street","city":"Buffalo","zip":"14202","latitude":40.7650231,"longitude":-73.9468546},{"title":"Big Black Delta","created_by":"TicketMaster","category":"Music","start_date":"2016-05-15T05:00:00.000Z","venue_name":"The Hollow","address":"79 North Pearl St","city":"Albany","zip":"12207","latitude":40.7040869,"longitude":-74.01041049999999},{"title":"Albany Symphony Orchestra","created_by":"TicketMaster","category":"Arts & Theater","start_date":"2016-05-15T05:30:00.000Z","venue_name":"The Palace Theatre Albany","address":"19 Clinton Ave","city":"Albany","zip":"12207","latitude":40.69729,"longitude":-73.9693099},{"title":"Love Letters","created_by":"TicketMaster","category":"Arts & Theater","start_date":"2016-05-15T06:00:00.000Z","venue_name":"710 Main Street","address":"710 Main St","city":"Buffalo","zip":"14202","latitude":40.7657274,"longitude":-73.9462272},{"title":"The Smithereens","created_by":"TicketMaster","category":"Music","start_date":"2016-05-15T06:00:00.000Z","venue_name":"Bears Den At Seneca Niagara Casino & Hotel","address":"310 4th Street","city":"Niagara Falls","zip":"14303","latitude":40.721866,"longitude":-73.979783},{"title":"Marco Benevento","created_by":"TicketMaster","category":"Music","start_date":"2016-05-15T06:00:00.000Z","venue_name":"Tralf","address":"622 Main St","city":"Buffalo","zip":"14202","latitude":40.7648625,"longitude":-73.9469977},{"title":"Skid Row","created_by":"TicketMaster","category":"Music","start_date":"2016-05-15T06:00:00.000Z","venue_name":"Turning Stone Resort & Casino Showroom","address":"5218 Patrick Road","city":"Verona","zip":"13478","latitude":43.115301,"longitude":-75.58884789999999},{"title":"20th Anniversary Dru Hill & Friends","created_by":"TicketMaster","category":"Music","start_date":"2016-05-15T06:00:00.000Z","venue_name":"Blue Cross Arena","address":"One War Memorial Square","city":"Rochester","zip":"14614","latitude":42.4491717,"longitude":-75.0612675},{"title":"Dirty Dancing (Touring)","created_by":"TicketMaster","category":"Arts & Theater","start_date":"2016-05-15T06:00:00.000Z","venue_name":"Rochester Auditorium Theatre","address":"885 East Main Street","city":"Rochester","zip":"14605","latitude":40.7572391,"longitude":-73.95347009999999},{"title":"Day Out with Thomas (TM)","created_by":"TicketMaster","category":"Family","start_date":"2016-05-15T19:15:00.000Z","venue_name":"Medina Railroad Museum","address":"530 West Ave.","city":"Medina","zip":"14103","latitude":40.5820607,"longitude":-73.9718718},{"title":"Day Out with Thomas (TM)","created_by":"TicketMaster","category":"Family","start_date":"2016-05-15T20:00:00.000Z","venue_name":"Medina Railroad Museum","address":"530 West Ave.","city":"Medina","zip":"14103","latitude":40.5820607,"longitude":-73.9718718},{"title":"Day Out with Thomas (TM)","created_by":"TicketMaster","category":"Family","start_date":"2016-05-15T20:45:00.000Z","venue_name":"Medina Railroad Museum","address":"530 West Ave.","city":"Medina","zip":"14103","latitude":40.5820607,"longitude":-73.9718718},{"title":"Day Out with Thomas (TM)","created_by":"TicketMaster","category":"Family","start_date":"2016-05-15T21:30:00.000Z","venue_name":"Medina Railroad Museum","address":"530 West Ave.","city":"Medina","zip":"14103","latitude":40.5820607,"longitude":-73.9718718},{"title":"Day Out with Thomas (TM)","created_by":"TicketMaster","category":"Family","start_date":"2016-05-15T22:15:00.000Z","venue_name":"Medina Railroad Museum","address":"530 West Ave.","city":"Medina","zip":"14103","latitude":40.5820607,"longitude":-73.9718718},{"title":"Sesame Street Live: Let's Dance!","created_by":"TicketMaster","category":"Family","start_date":"2016-05-15T23:00:00.000Z","venue_name":"Landmark Theatre","address":"362 South Salina Street","city":"Syracuse","zip":"13202","latitude":43.047358,"longitude":-76.152982},{"title":"Dirty Dancing (Touring)","created_by":"TicketMaster","category":"Arts & Theater","start_date":"2016-05-15T23:00:00.000Z","venue_name":"Rochester Auditorium Theatre","address":"885 East Main Street","city":"Rochester","zip":"14605","latitude":40.7572391,"longitude":-73.95347009999999},{"title":"Day Out with Thomas (TM)","created_by":"TicketMaster","category":"Family","start_date":"2016-05-15T23:00:00.000Z","venue_name":"Medina Railroad Museum","address":"530 West Ave.","city":"Medina","zip":"14103","latitude":40.5820607,"longitude":-73.9718718},{"title":"Day Out with Thomas (TM)","created_by":"TicketMaster","category":"Family","start_date":"2016-05-15T23:45:00.000Z","venue_name":"Medina Railroad Museum","address":"530 West Ave.","city":"Medina","zip":"14103","latitude":40.5820607,"longitude":-73.9718718},{"title":"Freckleface Strawberry","created_by":"TicketMaster","category":"Arts & Theater","start_date":"2016-05-16T00:00:00.000Z","venue_name":"The Palace Theatre Albany","address":"19 Clinton Ave","city":"Albany","zip":"12207","latitude":40.69729,"longitude":-73.9693099},{"title":"Love Letters","created_by":"TicketMaster","category":"Arts & Theater","start_date":"2016-05-16T00:00:00.000Z","venue_name":"710 Main Street","address":"710 Main St","city":"Buffalo","zip":"14202","latitude":40.7657274,"longitude":-73.9462272},{"title":"Day Out with Thomas (TM)","created_by":"TicketMaster","category":"Family","start_date":"2016-05-16T00:30:00.000Z","venue_name":"Medina Railroad Museum","address":"530 West Ave.","city":"Medina","zip":"14103","latitude":40.5820607,"longitude":-73.9718718},{"title":"Day Out with Thomas (TM)","created_by":"TicketMaster","category":"Family","start_date":"2016-05-16T01:15:00.000Z","venue_name":"Medina Railroad Museum","address":"530 West Ave.","city":"Medina","zip":"14103","latitude":40.5820607,"longitude":-73.9718718},{"title":"Day Out with Thomas (TM)","created_by":"TicketMaster","category":"Family","start_date":"2016-05-16T02:00:00.000Z","venue_name":"Medina Railroad Museum","address":"530 West Ave.","city":"Medina","zip":"14103","latitude":40.5820607,"longitude":-73.9718718},{"title":"Sesame Street Live: Let's Dance!","created_by":"TicketMaster","category":"Family","start_date":"2016-05-16T02:30:00.000Z","venue_name":"Landmark Theatre","address":"362 South Salina Street","city":"Syracuse","zip":"13202","latitude":43.047358,"longitude":-76.152982},{"title":"Day Out with Thomas (TM)","created_by":"TicketMaster","category":"Family","start_date":"2016-05-16T02:45:00.000Z","venue_name":"Medina Railroad Museum","address":"530 West Ave.","city":"Medina","zip":"14103","latitude":40.5820607,"longitude":-73.9718718},{"title":"Day Out with Thomas (TM)","created_by":"TicketMaster","category":"Family","start_date":"2016-05-16T03:30:00.000Z","venue_name":"Medina Railroad Museum","address":"530 West Ave.","city":"Medina","zip":"14103","latitude":40.5820607,"longitude":-73.9718718},{"title":"Dirty Dancing (Touring)","created_by":"TicketMaster","category":"Arts & Theater","start_date":"2016-05-16T04:30:00.000Z","venue_name":"Rochester Auditorium Theatre","address":"885 East Main Street","city":"Rochester","zip":"14605","latitude":40.7572391,"longitude":-73.95347009999999},{"title":"Love Letters","created_by":"TicketMaster","category":"Arts & Theater","start_date":"2016-05-16T05:00:00.000Z","venue_name":"710 Main Street","address":"710 Main St","city":"Buffalo","zip":"14202","latitude":40.7657274,"longitude":-73.9462272},{"title":"OLD 97'S and HEARTLESS BASTARDS","created_by":"TicketMaster","category":"Music","start_date":"2016-05-16T06:00:00.000Z","venue_name":"Tralf","address":"622 Main St","city":"Buffalo","zip":"14202","latitude":40.7648625,"longitude":-73.9469977},{"title":"42nd Street (Touring)","created_by":"TicketMaster","category":"Arts & Theater","start_date":"2016-05-18T05:30:00.000Z","venue_name":"The Oncenter Crouse Hinds Theater","address":"411 Montgomery Street","city":"Syracuse","zip":"13202","latitude":40.66542829999999,"longitude":-73.95113700000002},{"title":"Love Letters","created_by":"TicketMaster","category":"Arts & Theater","start_date":"2016-05-18T05:30:00.000Z","venue_name":"710 Main Street","address":"710 Main St","city":"Buffalo","zip":"14202","latitude":40.7657274,"longitude":-73.9462272},{"title":"Whitechapel","created_by":"TicketMaster","category":"Music","start_date":"2016-05-19T03:00:00.000Z","venue_name":"Upstate Concert Hall","address":"1208 Route 146","city":"Clifton Park","zip":"12065","latitude":40.827661,"longitude":-73.9512653},{"title":"Love Letters","created_by":"TicketMaster","category":"Arts & Theater","start_date":"2016-05-19T05:30:00.000Z","venue_name":"710 Main Street","address":"710 Main St","city":"Buffalo","zip":"14202","latitude":40.7657274,"longitude":-73.9462272},{"title":"42nd Street (Touring)","created_by":"TicketMaster","category":"Arts & Theater","start_date":"2016-05-19T05:30:00.000Z","venue_name":"The Oncenter Crouse Hinds Theater","address":"411 Montgomery Street","city":"Syracuse","zip":"13202","latitude":40.66542829999999,"longitude":-73.95113700000002},{"title":"Power 99 Presents A$AP FERG & TORY LANEZ: The Level Up Tour","created_by":"TicketMaster","category":"Music","start_date":"2016-05-19T07:00:00.000Z","venue_name":"The Fillmore Philadelphia","address":"29 E Allen Street","city":"Philadelphia","zip":"19123","latitude":40.71581399999999,"longitude":-73.992548},{"title":"Dreamers","created_by":"TicketMaster","category":"Music","start_date":"2016-05-20T05:00:00.000Z","venue_name":"The Hollow","address":"79 North Pearl St","city":"Albany","zip":"12207","latitude":40.7040869,"longitude":-74.01041049999999},{"title":"42nd Street (Touring)","created_by":"TicketMaster","category":"Arts & Theater","start_date":"2016-05-20T05:30:00.000Z","venue_name":"The Oncenter Crouse Hinds Theater","address":"411 Montgomery Street","city":"Syracuse","zip":"13202","latitude":40.66542829999999,"longitude":-73.95113700000002},{"title":"Love Letters","created_by":"TicketMaster","category":"Arts & Theater","start_date":"2016-05-20T05:30:00.000Z","venue_name":"710 Main Street","address":"710 Main St","city":"Buffalo","zip":"14202","latitude":40.7657274,"longitude":-73.9462272},{"title":"Rickey Smiley","created_by":"TicketMaster","category":"Arts & Theater","start_date":"2016-05-20T06:00:00.000Z","venue_name":"The Palace Theatre Albany","address":"19 Clinton Ave","city":"Albany","zip":"12207","latitude":40.69729,"longitude":-73.9693099},{"title":"Todd Rundgren","created_by":"TicketMaster","category":"Music","start_date":"2016-05-20T06:00:00.000Z","venue_name":"Riviera Theatre","address":"67 Webster St","city":"N. Tonawanda","zip":"14120","latitude":40.629833,"longitude":-73.9773025},{"title":"NYLON presents Rooney","created_by":"TicketMaster","category":"Music","start_date":"2016-05-20T06:00:00.000Z","venue_name":"The Foundry","address":"1000 Frankford Ave","city":"Philadelphia","zip":"19125","latitude":40.7036259,"longitude":-73.3606554},{"title":"Bobby Vinton","created_by":"TicketMaster","category":"Music","start_date":"2016-05-20T06:00:00.000Z","venue_name":"Turning Stone Resort & Casino Showroom","address":"5218 Patrick Road","city":"Verona","zip":"13478","latitude":43.115301,"longitude":-75.58884789999999},{"title":"Rock'n Derby","created_by":"TicketMaster","category":"Music","start_date":"2016-05-20T10:00:00.000Z","venue_name":"SCHAGTHICOKE FAIR GROUNDS","address":"69 Stillwater Bridge Road","city":"Schaghticoke","zip":"12154","latitude":42.9064312,"longitude":-73.59009499999999},{"title":"Rock'n Derby","created_by":"TicketMaster","category":"Music","start_date":"2016-05-20T22:00:00.000Z","venue_name":"SCHAGTHICOKE FAIR GROUNDS","address":"69 Stillwater Bridge Road","city":"Schaghticoke","zip":"12154","latitude":42.9064312,"longitude":-73.59009499999999},{"title":"Rock'n Derby","created_by":"TicketMaster","category":"Music","start_date":"2016-05-20T10:00:00.000Z","venue_name":"SCHAGTHICOKE FAIR GROUNDS","address":"69 Stillwater Bridge Road","city":"Schaghticoke","zip":"12154","latitude":42.9064312,"longitude":-73.59009499999999},{"title":"Rickey Smiley","created_by":"TicketMaster","category":"Arts & Theater","start_date":"2016-05-21T05:30:00.000Z","venue_name":"Tralf","address":"622 Main St","city":"Buffalo","zip":"14202","latitude":40.7648625,"longitude":-73.9469977},{"title":"Love Letters","created_by":"TicketMaster","category":"Arts & Theater","start_date":"2016-05-21T06:00:00.000Z","venue_name":"710 Main Street","address":"710 Main St","city":"Buffalo","zip":"14202","latitude":40.7657274,"longitude":-73.9462272},{"title":"The Zombies","created_by":"TicketMaster","category":"Music","start_date":"2016-05-21T06:00:00.000Z","venue_name":"Bears Den At Seneca Niagara Casino & Hotel","address":"310 4th Street","city":"Niagara Falls","zip":"14303","latitude":40.721866,"longitude":-73.979783},{"title":"WXPN Welcomes Explosions In The Sky","created_by":"TicketMaster","category":"Music","start_date":"2016-05-21T06:00:00.000Z","venue_name":"The Fillmore Philadelphia","address":"29 E Allen Street","city":"Philadelphia","zip":"19123","latitude":40.71581399999999,"longitude":-73.992548},{"title":"The Milk Carton Kids, Margaret Glaspy","created_by":"TicketMaster","category":"Music","start_date":"2016-05-21T06:00:00.000Z","venue_name":"Asbury Hall at Babeville","address":"341 Delaware Ave","city":"Buffalo","zip":"14202","latitude":40.5888497,"longitude":-74.089488},{"title":"Rickey Smiley","created_by":"TicketMaster","category":"Arts & Theater","start_date":"2016-05-21T08:00:00.000Z","venue_name":"Tralf","address":"622 Main St","city":"Buffalo","zip":"14202","latitude":40.7648625,"longitude":-73.9469977},{"title":"WXPN Welcomes Rufus Wainwright","created_by":"TicketMaster","category":"Music","start_date":"2016-05-21T09:00:00.000Z","venue_name":"The Foundry","address":"1000 Frankford Ave","city":"Philadelphia","zip":"19125","latitude":40.7036259,"longitude":-73.3606554},{"title":"Day Out with Thomas (TM)","created_by":"TicketMaster","category":"Family","start_date":"2016-05-21T19:15:00.000Z","venue_name":"Medina Railroad Museum","address":"530 West Ave.","city":"Medina","zip":"14103","latitude":40.5820607,"longitude":-73.9718718},{"title":"Day Out with Thomas (TM)","created_by":"TicketMaster","category":"Family","start_date":"2016-05-21T20:00:00.000Z","venue_name":"Medina Railroad Museum","address":"530 West Ave.","city":"Medina","zip":"14103","latitude":40.5820607,"longitude":-73.9718718},{"title":"Day Out with Thomas (TM)","created_by":"TicketMaster","category":"Family","start_date":"2016-05-21T20:45:00.000Z","venue_name":"Medina Railroad Museum","address":"530 West Ave.","city":"Medina","zip":"14103","latitude":40.5820607,"longitude":-73.9718718},{"title":"Day Out with Thomas (TM)","created_by":"TicketMaster","category":"Family","start_date":"2016-05-21T21:30:00.000Z","venue_name":"Medina Railroad Museum","address":"530 West Ave.","city":"Medina","zip":"14103","latitude":40.5820607,"longitude":-73.9718718},{"title":"Rock'n Derby","created_by":"TicketMaster","category":"Music","start_date":"2016-05-21T22:00:00.000Z","venue_name":"SCHAGTHICOKE FAIR GROUNDS","address":"69 Stillwater Bridge Road","city":"Schaghticoke","zip":"12154","latitude":42.9064312,"longitude":-73.59009499999999},{"title":"Demolition Derby (Does Not Include Festival)","created_by":"TicketMaster","category":"Sports","start_date":"2016-05-21T22:00:00.000Z","venue_name":"SCHAGTHICOKE FAIR GROUNDS","address":"69 Stillwater Bridge Road","city":"Schaghticoke","zip":"12154","latitude":42.9064312,"longitude":-73.59009499999999},{"title":"Day Out with Thomas (TM)","created_by":"TicketMaster","category":"Family","start_date":"2016-05-21T22:15:00.000Z","venue_name":"Medina Railroad Museum","address":"530 West Ave.","city":"Medina","zip":"14103","latitude":40.5820607,"longitude":-73.9718718},{"title":"Day Out with Thomas (TM)","created_by":"TicketMaster","category":"Family","start_date":"2016-05-21T23:00:00.000Z","venue_name":"Medina Railroad Museum","address":"530 West Ave.","city":"Medina","zip":"14103","latitude":40.5820607,"longitude":-73.9718718},{"title":"Day Out with Thomas (TM)","created_by":"TicketMaster","category":"Family","start_date":"2016-05-21T23:45:00.000Z","venue_name":"Medina Railroad Museum","address":"530 West Ave.","city":"Medina","zip":"14103","latitude":40.5820607,"longitude":-73.9718718},{"title":"Love Letters","created_by":"TicketMaster","category":"Arts & Theater","start_date":"2016-05-22T00:00:00.000Z","venue_name":"710 Main Street","address":"710 Main St","city":"Buffalo","zip":"14202","latitude":40.7657274,"longitude":-73.9462272},{"title":"Day Out with Thomas (TM)","created_by":"TicketMaster","category":"Family","start_date":"2016-05-22T00:30:00.000Z","venue_name":"Medina Railroad Museum","address":"530 West Ave.","city":"Medina","zip":"14103","latitude":40.5820607,"longitude":-73.9718718},{"title":"Day Out with Thomas (TM)","created_by":"TicketMaster","category":"Family","start_date":"2016-05-22T01:15:00.000Z","venue_name":"Medina Railroad Museum","address":"530 West Ave.","city":"Medina","zip":"14103","latitude":40.5820607,"longitude":-73.9718718},{"title":"Day Out with Thomas (TM)","created_by":"TicketMaster","category":"Family","start_date":"2016-05-22T02:00:00.000Z","venue_name":"Medina Railroad Museum","address":"530 West Ave.","city":"Medina","zip":"14103","latitude":40.5820607,"longitude":-73.9718718},{"title":"Day Out with Thomas (TM)","created_by":"TicketMaster","category":"Family","start_date":"2016-05-22T02:45:00.000Z","venue_name":"Medina Railroad Museum","address":"530 West Ave.","city":"Medina","zip":"14103","latitude":40.5820607,"longitude":-73.9718718},{"title":"Day Out with Thomas (TM)","created_by":"TicketMaster","category":"Family","start_date":"2016-05-22T03:30:00.000Z","venue_name":"Medina Railroad Museum","address":"530 West Ave.","city":"Medina","zip":"14103","latitude":40.5820607,"longitude":-73.9718718},{"title":"The Unexpected: A Live Stage Play","created_by":"TicketMaster","category":"Arts & Theater","start_date":"2016-05-22T05:00:00.000Z","venue_name":"Tralf","address":"622 Main St","city":"Buffalo","zip":"14202","latitude":40.7648625,"longitude":-73.9469977},{"title":"ESYO PRESENTS MUSIC WITHOUT BORDERS","created_by":"TicketMaster","category":"Arts & Theater","start_date":"2016-05-22T05:30:00.000Z","venue_name":"The Palace Theatre Albany","address":"19 Clinton Ave","city":"Albany","zip":"12207","latitude":40.69729,"longitude":-73.9693099},{"title":"WWE Live","created_by":"TicketMaster","category":"Sports","start_date":"2016-05-22T05:30:00.000Z","venue_name":"Times Union Center","address":"51 South Pearl Street","city":"Albany","zip":"12207","latitude":40.7034388,"longitude":-74.0116527},{"title":"Brass Transit - World's Greatest Chicago Tribute","created_by":"TicketMaster","category":"Music","start_date":"2016-05-22T06:00:00.000Z","venue_name":"Bears Den At Seneca Niagara Casino & Hotel","address":"310 4th Street","city":"Niagara Falls","zip":"14303","latitude":40.721866,"longitude":-73.979783},{"title":"Love Letters","created_by":"TicketMaster","category":"Arts & Theater","start_date":"2016-05-22T06:00:00.000Z","venue_name":"710 Main Street","address":"710 Main St","city":"Buffalo","zip":"14202","latitude":40.7657274,"longitude":-73.9462272},{"title":"Day Out with Thomas (TM)","created_by":"TicketMaster","category":"Family","start_date":"2016-05-22T19:15:00.000Z","venue_name":"Medina Railroad Museum","address":"530 West Ave.","city":"Medina","zip":"14103","latitude":40.5820607,"longitude":-73.9718718},{"title":"Day Out with Thomas (TM)","created_by":"TicketMaster","category":"Family","start_date":"2016-05-22T20:00:00.000Z","venue_name":"Medina Railroad Museum","address":"530 West Ave.","city":"Medina","zip":"14103","latitude":40.5820607,"longitude":-73.9718718},{"title":"Day Out with Thomas (TM)","created_by":"TicketMaster","category":"Family","start_date":"2016-05-22T20:45:00.000Z","venue_name":"Medina Railroad Museum","address":"530 West Ave.","city":"Medina","zip":"14103","latitude":40.5820607,"longitude":-73.9718718},{"title":"Day Out with Thomas (TM)","created_by":"TicketMaster","category":"Family","start_date":"2016-05-22T21:30:00.000Z","venue_name":"Medina Railroad Museum","address":"530 West Ave.","city":"Medina","zip":"14103","latitude":40.5820607,"longitude":-73.9718718},{"title":"Demolition Derby (Does Not Include Festival)","created_by":"TicketMaster","category":"Sports","start_date":"2016-05-22T22:00:00.000Z","venue_name":"SCHAGTHICOKE FAIR GROUNDS","address":"69 Stillwater Bridge Road","city":"Schaghticoke","zip":"12154","latitude":42.9064312,"longitude":-73.59009499999999},{"title":"Rock'n Derby","created_by":"TicketMaster","category":"Music","start_date":"2016-05-22T22:00:00.000Z","venue_name":"SCHAGTHICOKE FAIR GROUNDS","address":"69 Stillwater Bridge Road","city":"Schaghticoke","zip":"12154","latitude":42.9064312,"longitude":-73.59009499999999},{"title":"Day Out with Thomas (TM)","created_by":"TicketMaster","category":"Family","start_date":"2016-05-22T22:15:00.000Z","venue_name":"Medina Railroad Museum","address":"530 West Ave.","city":"Medina","zip":"14103","latitude":40.5820607,"longitude":-73.9718718},{"title":"Day Out with Thomas (TM)","created_by":"TicketMaster","category":"Family","start_date":"2016-05-22T23:00:00.000Z","venue_name":"Medina Railroad Museum","address":"530 West Ave.","city":"Medina","zip":"14103","latitude":40.5820607,"longitude":-73.9718718},{"title":"Day Out with Thomas (TM)","created_by":"TicketMaster","category":"Family","start_date":"2016-05-22T23:45:00.000Z","venue_name":"Medina Railroad Museum","address":"530 West Ave.","city":"Medina","zip":"14103","latitude":40.5820607,"longitude":-73.9718718},{"title":"Love Letters","created_by":"TicketMaster","category":"Arts & Theater","start_date":"2016-05-23T00:00:00.000Z","venue_name":"710 Main Street","address":"710 Main St","city":"Buffalo","zip":"14202","latitude":40.7657274,"longitude":-73.9462272},{"title":"Day Out with Thomas (TM)","created_by":"TicketMaster","category":"Family","start_date":"2016-05-23T00:30:00.000Z","venue_name":"Medina Railroad Museum","address":"530 West Ave.","city":"Medina","zip":"14103","latitude":40.5820607,"longitude":-73.9718718},{"title":"Day Out with Thomas (TM)","created_by":"TicketMaster","category":"Family","start_date":"2016-05-23T01:15:00.000Z","venue_name":"Medina Railroad Museum","address":"530 West Ave.","city":"Medina","zip":"14103","latitude":40.5820607,"longitude":-73.9718718}]