[{"title":"King Lear By William Shakespeare","created_by":"TicketMaster","category":"Arts & Theater","start_date":"2016-04-23T05:00:00.000Z","venue_name":"FAU - Studio One","address":"777 Glades Road","city":"Boca Raton","zip":"33431","latitude":26.3705935,"longitude":-80.1033298},{"title":"The Noise Presents NOFX + Special Guests - The Hepatitis Bathtub Tour","created_by":"TicketMaster","category":"Music","start_date":"2016-04-23T05:00:00.000Z","venue_name":"Revolution Live","address":"100 SW 3rd Ave","city":"Ft Lauderdale","zip":"33312","latitude":26.1211947,"longitude":-80.1463248},{"title":"Dirty Dancing","created_by":"TicketMaster","category":"Arts & Theater","start_date":"2016-04-23T06:00:00.000Z","venue_name":"Au-Rene Theater at the Broward Center","address":"201 SW 5th Avenue","city":"Ft Lauderdale","zip":"33312","latitude":25.7691704,"longitude":-80.1985539},{"title":"One Night of Queen","created_by":"TicketMaster","category":"Music","start_date":"2016-04-23T06:00:00.000Z","venue_name":"Parker Playhouse","address":"707 NE 8th Street","city":"Ft Lauderdale","zip":"33304","latitude":25.4772813,"longitude":-80.46792169999999},{"title":"Fight Time PRO MMA","created_by":"TicketMaster","category":"Sports","start_date":"2016-04-23T06:00:00.000Z","venue_name":"War Memorial Auditorium","address":"800 NE 8th Street","city":"Ft Lauderdale","zip":"33304","latitude":25.4771625,"longitude":-80.4668531},{"title":"Film Screening - This Changes Everything - The Movie","created_by":"TicketMaster","category":"Miscellaneous","start_date":"2016-04-23T06:00:00.000Z","venue_name":"Miami Dade County Auditorium On.Stage Black Box","address":"2901 W Flagler Street","city":"Miami","zip":"33135","latitude":25.7730493,"longitude":-80.241148},{"title":"Florida Panthers vs. New York Islanders","created_by":"TicketMaster","category":"Sports","start_date":"2016-04-23T06:00:00.000Z","venue_name":"BB&T Center","address":"1 Panther Parkway","city":"Sunrise","zip":"33323","latitude":26.158469,"longitude":-80.32555119999999},{"title":"Bush","created_by":"TicketMaster","category":"Music","start_date":"2016-04-23T06:30:00.000Z","venue_name":"The Fillmore Miami Beach at Jackie Gleason Theater","address":"1700 Washington Ave","city":"Miami Beach","zip":"33139","latitude":25.7929317,"longitude":-80.1332492},{"title":"JTF's Friday Night Live","created_by":"TicketMaster","category":"Arts & Theater","start_date":"2016-04-23T07:00:00.000Z","venue_name":"Just the Funny","address":"3119 Coral Way","city":"Miami","zip":"33145","latitude":25.7504165,"longitude":-80.244412},{"title":"The Spotlight","created_by":"TicketMaster","category":"Arts & Theater","start_date":"2016-04-23T08:00:00.000Z","venue_name":"Just the Funny","address":"3119 Coral Way","city":"Miami","zip":"33145","latitude":25.7504165,"longitude":-80.244412},{"title":"After Hours","created_by":"TicketMaster","category":"Arts & Theater","start_date":"2016-04-23T09:00:00.000Z","venue_name":"Just the Funny","address":"3119 Coral Way","city":"Miami","zip":"33145","latitude":25.7504165,"longitude":-80.244412},{"title":"Miami LowRider Car Show","created_by":"TicketMaster","category":"Miscellaneous","start_date":"2016-04-23T21:00:00.000Z","venue_name":"Miami Dade Fair Expo Center","address":"10901 Coral Way (SW 24 St.)","city":"Miami","zip":"33165","latitude":25.757804,"longitude":-80.2074884},{"title":"Broadway Workshop For Students: Dirty Dancing","created_by":"TicketMaster","category":"Miscellaneous","start_date":"2016-04-23T21:30:00.000Z","venue_name":"Rose Miniaci Arts Education Center JM Family Studio Theater","address":"201 SW 5th Avenue","city":"Fort Lauderdale","zip":"33312","latitude":25.7691704,"longitude":-80.1985539},{"title":"King Lear By William Shakespeare","created_by":"TicketMaster","category":"Arts & Theater","start_date":"2016-04-24T00:00:00.000Z","venue_name":"FAU - Studio One","address":"777 Glades Road","city":"Boca Raton","zip":"33431","latitude":26.3705935,"longitude":-80.1033298},{"title":"Dirty Dancing","created_by":"TicketMaster","category":"Arts & Theater","start_date":"2016-04-24T00:00:00.000Z","venue_name":"Au-Rene Theater at the Broward Center","address":"201 SW 5th Avenue","city":"Ft Lauderdale","zip":"33312","latitude":25.7691704,"longitude":-80.1985539},{"title":"This World Made Itself By Miwa Matreyek","created_by":"TicketMaster","category":"Arts & Theater","start_date":"2016-04-24T00:00:00.000Z","venue_name":"Miami Dade County Auditorium","address":"2901 W. Flagler Street","city":"Miami","zip":"33135","latitude":25.7730493,"longitude":-80.241148},{"title":"South Florida Ballet Theater: Cinderella","created_by":"TicketMaster","category":"Arts & Theater","start_date":"2016-04-24T00:00:00.000Z","venue_name":"Amaturo Theater at Broward Center","address":"201 SW 5th Avenue","city":"Ft Lauderdale","zip":"33312","latitude":25.7691704,"longitude":-80.1985539},{"title":"The Psychoanalysis Of Climate Change By Xavier Cortada","created_by":"TicketMaster","category":"Arts & Theater","start_date":"2016-04-24T01:30:00.000Z","venue_name":"Miami Dade County Auditorium","address":"2901 W. Flagler Street","city":"Miami","zip":"33135","latitude":25.7730493,"longitude":-80.241148},{"title":"Florida Launch vs. Ohio Machine","created_by":"TicketMaster","category":"Sports","start_date":"2016-04-24T05:00:00.000Z","venue_name":"FAU Stadium","address":"777 Glades Rd","city":"Boca Raton","zip":"33431","latitude":26.3705935,"longitude":-80.1033298},{"title":"South Florida Ballet Theater: Cinderella","created_by":"TicketMaster","category":"Arts & Theater","start_date":"2016-04-24T05:00:00.000Z","venue_name":"Amaturo Theater at Broward Center","address":"201 SW 5th Avenue","city":"Ft Lauderdale","zip":"33312","latitude":25.7691704,"longitude":-80.1985539},{"title":"King Lear By William Shakespeare","created_by":"TicketMaster","category":"Arts & Theater","start_date":"2016-04-24T05:00:00.000Z","venue_name":"FAU - Studio One","address":"777 Glades Road","city":"Boca Raton","zip":"33431","latitude":26.3705935,"longitude":-80.1033298},{"title":"Peter Bisuito in My Big Funny Peter","created_by":"TicketMaster","category":"Arts & Theater","start_date":"2016-04-24T05:30:00.000Z","venue_name":"Abdo New River Room at the Broward Center","address":"201 SW 5th Avenue","city":"Ft Lauderdale","zip":"33312","latitude":25.7691704,"longitude":-80.1985539},{"title":"Skindred","created_by":"TicketMaster","category":"Music","start_date":"2016-04-24T05:30:00.000Z","venue_name":"Culture Room","address":"3045 N Federal Hwy","city":"Ft Lauderdale","zip":"33306","latitude":26.1664922,"longitude":-80.1173489},{"title":"MiamiBash","created_by":"TicketMaster","category":"Music","start_date":"2016-04-24T06:00:00.000Z","venue_name":"AmericanAirlines Arena","address":"601 Biscayne Blvd","city":"Miami","zip":"33132","latitude":25.7813496,"longitude":-80.1874406},{"title":"Luyano Band","created_by":"TicketMaster","category":"Music","start_date":"2016-04-24T06:00:00.000Z","venue_name":"Miami Dade County Auditorium","address":"2901 W. Flagler Street","city":"Miami","zip":"33135","latitude":25.7730493,"longitude":-80.241148},{"title":"Zoso: the Ultimate Led Zeppelin Experience","created_by":"TicketMaster","category":"Music","start_date":"2016-04-24T06:00:00.000Z","venue_name":"Parker Playhouse","address":"707 NE 8th Street","city":"Ft Lauderdale","zip":"33304","latitude":25.4772813,"longitude":-80.46792169999999},{"title":"A Night With Janis Joplin (Touring)","created_by":"TicketMaster","category":"Arts & Theater","start_date":"2016-04-24T06:00:00.000Z","venue_name":"Kravis Center","address":"701 Okeechobee Blvd.","city":"West Palm Beach","zip":"33401","latitude":26.706871,"longitude":-80.0611},{"title":"Dirty Dancing","created_by":"TicketMaster","category":"Arts & Theater","start_date":"2016-04-24T06:00:00.000Z","venue_name":"Au-Rene Theater at the Broward Center","address":"201 SW 5th Avenue","city":"Ft Lauderdale","zip":"33312","latitude":25.7691704,"longitude":-80.1985539},{"title":"Cheap Trills Musical Improv","created_by":"TicketMaster","category":"Arts & Theater","start_date":"2016-04-24T07:00:00.000Z","venue_name":"Just the Funny","address":"3119 Coral Way","city":"Miami","zip":"33145","latitude":25.7504165,"longitude":-80.244412},{"title":"The Spotlight","created_by":"TicketMaster","category":"Arts & Theater","start_date":"2016-04-24T08:00:00.000Z","venue_name":"Just the Funny","address":"3119 Coral Way","city":"Miami","zip":"33145","latitude":25.7504165,"longitude":-80.244412},{"title":"Just the Funny - After Hours","created_by":"TicketMaster","category":"Arts & Theater","start_date":"2016-04-24T09:00:00.000Z","venue_name":"Just the Funny","address":"3119 Coral Way","city":"Miami","zip":"33145","latitude":25.7504165,"longitude":-80.244412},{"title":"Miami LowRider Car Show","created_by":"TicketMaster","category":"Miscellaneous","start_date":"2016-04-24T21:00:00.000Z","venue_name":"Miami Dade Fair Expo Center","address":"10901 Coral Way (SW 24 St.)","city":"Miami","zip":"33165","latitude":25.757804,"longitude":-80.2074884},{"title":"Dirty Dancing","created_by":"TicketMaster","category":"Arts & Theater","start_date":"2016-04-24T23:00:00.000Z","venue_name":"Au-Rene Theater at the Broward Center","address":"201 SW 5th Avenue","city":"Ft Lauderdale","zip":"33312","latitude":25.7691704,"longitude":-80.1985539},{"title":"King Lear By William Shakespeare","created_by":"TicketMaster","category":"Arts & Theater","start_date":"2016-04-25T00:00:00.000Z","venue_name":"FAU - Studio One","address":"777 Glades Road","city":"Boca Raton","zip":"33431","latitude":26.3705935,"longitude":-80.1033298},{"title":"Jorge Hernandez","created_by":"TicketMaster","category":"Music","start_date":"2016-04-25T03:00:00.000Z","venue_name":"Miami Dade County Auditorium On.Stage Black Box","address":"2901 W Flagler Street","city":"Miami","zip":"33135","latitude":25.7730493,"longitude":-80.241148},{"title":"An Evening with Eliane Elias","created_by":"TicketMaster","category":"Music","start_date":"2016-04-25T05:00:00.000Z","venue_name":"Amaturo Theater at Broward Center","address":"201 SW 5th Avenue","city":"Ft Lauderdale","zip":"33312","latitude":25.7691704,"longitude":-80.1985539},{"title":"Melendi","created_by":"TicketMaster","category":"Music","start_date":"2016-04-25T06:00:00.000Z","venue_name":"The Fillmore Miami Beach at Jackie Gleason Theater","address":"1700 Washington Ave","city":"Miami Beach","zip":"33139","latitude":25.7929317,"longitude":-80.1332492},{"title":"Miami LowRider Car Show 2 Day Pass","created_by":"TicketMaster","category":"Miscellaneous","start_date":"2016-04-23T21:00:00.000Z","venue_name":"Miami Dade Fair Expo Center","address":"10901 Coral Way (SW 24 St.)","city":"Miami","zip":"33165","latitude":25.757804,"longitude":-80.2074884},{"title":"An Evening with Garrison Keillor","created_by":"TicketMaster","category":"Music","start_date":"2016-04-26T05:30:00.000Z","venue_name":"Au-Rene Theater at the Broward Center","address":"201 SW 5th Avenue","city":"Ft Lauderdale","zip":"33312","latitude":25.7691704,"longitude":-80.1985539},{"title":"Florida Panthers vs. New York Islanders","created_by":"TicketMaster","category":"Sports","start_date":"2016-04-26T10:00:00.000Z","venue_name":"BB&T Center","address":"1 Panther Parkway","city":"Sunrise","zip":"33323","latitude":26.158469,"longitude":-80.32555119999999},{"title":"Santigold - We Buy Gold Tour","created_by":"TicketMaster","category":"Music","start_date":"2016-04-27T05:30:00.000Z","venue_name":"Revolution Live","address":"100 SW 3rd Ave","city":"Ft Lauderdale","zip":"33312","latitude":26.1211947,"longitude":-80.1463248},{"title":"The Amazing Tour is Not on Fire!","created_by":"TicketMaster","category":"Arts & Theater","start_date":"2016-04-27T05:30:00.000Z","venue_name":"Au-Rene Theater at the Broward Center","address":"201 SW 5th Avenue","city":"Ft Lauderdale","zip":"33312","latitude":25.7691704,"longitude":-80.1985539},{"title":"2016 NBA Playoffs: Miami Heat V Charlotte Hornets-Round 1 Home Game 3","created_by":"TicketMaster","category":"Sports","start_date":"2016-04-27T10:00:00.000Z","venue_name":"AmericanAirlines Arena","address":"601 Biscayne Blvd","city":"Miami","zip":"33132","latitude":25.7813496,"longitude":-80.1874406},{"title":"Beyoncé - The Formation World Tour","created_by":"TicketMaster","category":"Music","start_date":"2016-04-28T05:30:00.000Z","venue_name":"Marlins Park","address":"501 Marlins Way","city":"Miami","zip":"33125","latitude":25.778104,"longitude":-80.21977009999999},{"title":"Grace Potter","created_by":"TicketMaster","category":"Music","start_date":"2016-04-28T07:00:00.000Z","venue_name":"Faena Theater","address":"3201 Collins Ave","city":"Miami Beach","zip":"33140","latitude":25.8073645,"longitude":-80.12341579999999},{"title":"Dances We Dance Spring Showcase","created_by":"TicketMaster","category":"Arts & Theater","start_date":"2016-04-29T05:00:00.000Z","venue_name":"FAU - University Theatre","address":"777 Glades Road","city":"Boca Raton","zip":"33431","latitude":26.3705935,"longitude":-80.1033298},{"title":"Tokyo Police Club","created_by":"TicketMaster","category":"Music","start_date":"2016-04-29T05:30:00.000Z","venue_name":"Culture Room","address":"3045 N Federal Hwy","city":"Ft Lauderdale","zip":"33306","latitude":26.1664922,"longitude":-80.1173489},{"title":"Celtic Woman: The Destiny Tour","created_by":"TicketMaster","category":"Music","start_date":"2016-04-29T05:30:00.000Z","venue_name":"Au-Rene Theater at the Broward Center","address":"201 SW 5th Avenue","city":"Ft Lauderdale","zip":"33312","latitude":25.7691704,"longitude":-80.1985539},{"title":"Frank Caliendo","created_by":"TicketMaster","category":"Arts & Theater","start_date":"2016-04-29T06:00:00.000Z","venue_name":"Parker Playhouse","address":"707 NE 8th Street","city":"Ft Lauderdale","zip":"33304","latitude":25.4772813,"longitude":-80.46792169999999},{"title":"Dances We Dance Spring Showcase","created_by":"TicketMaster","category":"Arts & Theater","start_date":"2016-04-30T05:00:00.000Z","venue_name":"FAU - University Theatre","address":"777 Glades Road","city":"Boca Raton","zip":"33431","latitude":26.3705935,"longitude":-80.1033298},{"title":"Joseph and the Amazing Technicolor Dreamcoat","created_by":"TicketMaster","category":"Arts & Theater","start_date":"2016-04-30T05:30:00.000Z","venue_name":"Amaturo Theater at Broward Center","address":"201 SW 5th Avenue","city":"Ft Lauderdale","zip":"33312","latitude":25.7691704,"longitude":-80.1985539},{"title":"Ra Ra Riot","created_by":"TicketMaster","category":"Music","start_date":"2016-04-30T06:00:00.000Z","venue_name":"Revolution Live","address":"100 SW 3rd Ave","city":"Ft Lauderdale","zip":"33312","latitude":26.1211947,"longitude":-80.1463248},{"title":"BOSTON: 40th Anniversary","created_by":"TicketMaster","category":"Music","start_date":"2016-04-30T06:00:00.000Z","venue_name":"Hard Rock Live","address":"5747 Seminole Way","city":"Hollywood","zip":"33314","latitude":27.8410282,"longitude":-82.8317046},{"title":"Pennywise","created_by":"TicketMaster","category":"Music","start_date":"2016-04-30T06:00:00.000Z","venue_name":"Culture Room","address":"3045 N Federal Hwy","city":"Ft Lauderdale","zip":"33306","latitude":26.1664922,"longitude":-80.1173489},{"title":"JTF's Friday Night Live","created_by":"TicketMaster","category":"Arts & Theater","start_date":"2016-04-30T07:00:00.000Z","venue_name":"Just the Funny","address":"3119 Coral Way","city":"Miami","zip":"33145","latitude":25.7504165,"longitude":-80.244412},{"title":"Vintage Trouble and Lizzo","created_by":"TicketMaster","category":"Music","start_date":"2016-04-30T07:00:00.000Z","venue_name":"Faena Theater","address":"3201 Collins Ave","city":"Miami Beach","zip":"33140","latitude":25.8073645,"longitude":-80.12341579999999},{"title":"The Spotlight","created_by":"TicketMaster","category":"Arts & Theater","start_date":"2016-04-30T08:00:00.000Z","venue_name":"Just the Funny","address":"3119 Coral Way","city":"Miami","zip":"33145","latitude":25.7504165,"longitude":-80.244412},{"title":"After Hours","created_by":"TicketMaster","category":"Arts & Theater","start_date":"2016-04-30T09:00:00.000Z","venue_name":"Just the Funny","address":"3119 Coral Way","city":"Miami","zip":"33145","latitude":25.7504165,"longitude":-80.244412},{"title":"Dances We Dance Spring Showcase","created_by":"TicketMaster","category":"Arts & Theater","start_date":"2016-04-30T23:00:00.000Z","venue_name":"FAU - University Theatre","address":"777 Glades Road","city":"Boca Raton","zip":"33431","latitude":26.3705935,"longitude":-80.1033298},{"title":"Dances We Dance Spring Showcase","created_by":"TicketMaster","category":"Arts & Theater","start_date":"2016-05-01T05:00:00.000Z","venue_name":"FAU - University Theatre","address":"777 Glades Road","city":"Boca Raton","zip":"33431","latitude":26.3705935,"longitude":-80.1033298},{"title":"Keith Sweat, Silk","created_by":"TicketMaster","category":"Music","start_date":"2016-05-01T05:30:00.000Z","venue_name":"Pompano Beach Amphitheater","address":"1801 NE 6th Street","city":"Pompano Beach","zip":"33060","latitude":26.2381066,"longitude":-80.1052394},{"title":"Joseph and the Amazing Technicolor Dreamcoat","created_by":"TicketMaster","category":"Arts & Theater","start_date":"2016-05-01T05:30:00.000Z","venue_name":"Amaturo Theater at Broward Center","address":"201 SW 5th Avenue","city":"Ft Lauderdale","zip":"33312","latitude":25.7691704,"longitude":-80.1985539},{"title":"Uptown Swing! by Wilkie Ferguson","created_by":"TicketMaster","category":"Arts & Theater","start_date":"2016-05-01T05:30:00.000Z","venue_name":"FAU - Theatre Lab in the Parliament Hall","address":"777 Glades Rd","city":"Boca Raton","zip":"33431","latitude":26.3705935,"longitude":-80.1033298},{"title":"Metropolitan Intl Fashion Week Miami Presents A Night Of Fashion","created_by":"TicketMaster","category":"Arts & Theater","start_date":"2016-05-01T06:00:00.000Z","venue_name":"The Fillmore Miami Beach at Jackie Gleason Theater","address":"1700 Washington Ave","city":"Miami Beach","zip":"33139","latitude":25.7929317,"longitude":-80.1332492},{"title":"Chris Isaak: First Comes The Night Tour","created_by":"TicketMaster","category":"Music","start_date":"2016-05-01T06:00:00.000Z","venue_name":"Au-Rene Theater at the Broward Center","address":"201 SW 5th Avenue","city":"Ft Lauderdale","zip":"33312","latitude":25.7691704,"longitude":-80.1985539},{"title":"The Gipsy Kings Featuring Nicolas Reyes And Tonino Baliardo","created_by":"TicketMaster","category":"Music","start_date":"2016-05-01T06:00:00.000Z","venue_name":"Hard Rock Live","address":"5747 Seminole Way","city":"Hollywood","zip":"33314","latitude":27.8410282,"longitude":-82.8317046},{"title":"Chris Isaak - Upgrade Meet & Greet Packages","created_by":"TicketMaster","category":"Music","start_date":"2016-05-01T06:01:00.000Z","venue_name":"Au-Rene Theater at the Broward Center","address":"201 SW 5th Avenue","city":"Ft Lauderdale","zip":"33312","latitude":25.7691704,"longitude":-80.1985539},{"title":"The Spotlight","created_by":"TicketMaster","category":"Arts & Theater","start_date":"2016-05-01T08:00:00.000Z","venue_name":"Just the Funny","address":"3119 Coral Way","city":"Miami","zip":"33145","latitude":25.7504165,"longitude":-80.244412},{"title":"Just the Funny - After Hours","created_by":"TicketMaster","category":"Arts & Theater","start_date":"2016-05-01T09:00:00.000Z","venue_name":"Just the Funny","address":"3119 Coral Way","city":"Miami","zip":"33145","latitude":25.7504165,"longitude":-80.244412},{"title":"Family Fun Series: Junie B's Essential Survival Guide to School","created_by":"TicketMaster","category":"Family","start_date":"2016-05-01T21:00:00.000Z","venue_name":"Amaturo Theater at Broward Center","address":"201 SW 5th Avenue","city":"Ft Lauderdale","zip":"33312","latitude":25.7691704,"longitude":-80.1985539},{"title":"Family Fun Series: Junie B's Essential Survival Guide to School","created_by":"TicketMaster","category":"Family","start_date":"2016-05-01T23:00:00.000Z","venue_name":"Amaturo Theater at Broward Center","address":"201 SW 5th Avenue","city":"Ft Lauderdale","zip":"33312","latitude":25.7691704,"longitude":-80.1985539},{"title":"Uptown Swing! by Wilkie Ferguson","created_by":"TicketMaster","category":"Arts & Theater","start_date":"2016-05-02T00:00:00.000Z","venue_name":"FAU - Theatre Lab in the Parliament Hall","address":"777 Glades Rd","city":"Boca Raton","zip":"33431","latitude":26.3705935,"longitude":-80.1033298},{"title":"The Absence - La Ausencia","created_by":"TicketMaster","category":"Miscellaneous","start_date":"2016-05-02T00:00:00.000Z","venue_name":"Aventura Arts & Cultural Center","address":"3385 NE 188th Street","city":"Aventura","zip":"33180","latitude":25.9498962,"longitude":-80.1346305},{"title":"Mdca & Fco Present: Buenas Tardes, Tango! De Gardel A Piazzolla","created_by":"TicketMaster","category":"Music","start_date":"2016-05-02T03:00:00.000Z","venue_name":"Miami Dade County Auditorium","address":"2901 W. Flagler Street","city":"Miami","zip":"33135","latitude":25.7730493,"longitude":-80.241148},{"title":"The Smashing Pumpkins - In Plainsong","created_by":"TicketMaster","category":"Music","start_date":"2016-05-02T05:30:00.000Z","venue_name":"Au-Rene Theater at the Broward Center","address":"201 SW 5th Avenue","city":"Ft Lauderdale","zip":"33312","latitude":25.7691704,"longitude":-80.1985539},{"title":"Pirate School: The Science of Pirates! - Smart Stage Matinee Series","created_by":"TicketMaster","category":"Family","start_date":"2016-05-03T20:00:00.000Z","venue_name":"Amaturo Theater at Broward Center","address":"201 SW 5th Avenue","city":"Ft Lauderdale","zip":"33312","latitude":25.7691704,"longitude":-80.1985539},{"title":"Buckcherry","created_by":"TicketMaster","category":"Music","start_date":"2016-05-04T05:00:00.000Z","venue_name":"Capt Hiram's Resort","address":"1606 N. Indian Drive","city":"Sebastian","zip":"32958","latitude":28.3854737,"longitude":-80.740304},{"title":"Cypress Hill 25th Anniversary World Tour (Est 1991)","created_by":"TicketMaster","category":"Music","start_date":"2016-05-04T05:30:00.000Z","venue_name":"Revolution Live","address":"100 SW 3rd Ave","city":"Ft Lauderdale","zip":"33312","latitude":26.1211947,"longitude":-80.1463248},{"title":"Mavis Staples & The Blind Boys of Alabama","created_by":"TicketMaster","category":"Music","start_date":"2016-05-05T05:30:00.000Z","venue_name":"Au-Rene Theater at the Broward Center","address":"201 SW 5th Avenue","city":"Ft Lauderdale","zip":"33312","latitude":25.7691704,"longitude":-80.1985539},{"title":"Malson","created_by":"TicketMaster","category":"Arts & Theater","start_date":"2016-05-06T06:00:00.000Z","venue_name":"Miami Dade County Auditorium","address":"2901 W. Flagler Street","city":"Miami","zip":"33135","latitude":25.7730493,"longitude":-80.241148},{"title":"Rolling Loud","created_by":"TicketMaster","category":"Music","start_date":"2016-05-06T10:00:00.000Z","venue_name":"Mana Wynwood","address":"318 NW 23rd St","city":"Miami","zip":"33127","latitude":25.7982206,"longitude":-80.20195509999999},{"title":"Collie Buddz","created_by":"TicketMaster","category":"Music","start_date":"2016-05-07T04:00:00.000Z","venue_name":"Propaganda","address":"6 South J Street","city":"Lake Worth","zip":"33460","latitude":null,"longitude":null},{"title":"iMPACT GiRLS: 2016 Gala","created_by":"TicketMaster","category":"Miscellaneous","start_date":"2016-05-07T05:30:00.000Z","venue_name":"Amaturo Theater at Broward Center","address":"201 SW 5th Avenue","city":"Ft Lauderdale","zip":"33312","latitude":25.7691704,"longitude":-80.1985539},{"title":"Bill Burr: Plowin' Ahead","created_by":"TicketMaster","category":"Arts & Theater","start_date":"2016-05-07T06:00:00.000Z","venue_name":"Hard Rock Live","address":"5747 Seminole Way","city":"Hollywood","zip":"33314","latitude":27.8410282,"longitude":-82.8317046},{"title":"Mavis Staples & Blind Boys of Alabama","created_by":"TicketMaster","category":"Music","start_date":"2016-05-07T06:00:00.000Z","venue_name":"Kravis Center","address":"701 Okeechobee Blvd.","city":"West Palm Beach","zip":"33401","latitude":26.706871,"longitude":-80.0611},{"title":"Carlos Vives","created_by":"TicketMaster","category":"Music","start_date":"2016-05-07T06:00:00.000Z","venue_name":"AmericanAirlines Arena","address":"601 Biscayne Blvd","city":"Miami","zip":"33132","latitude":25.7813496,"longitude":-80.1874406},{"title":"Bunny Wailer","created_by":"TicketMaster","category":"Music","start_date":"2016-05-07T06:00:00.000Z","venue_name":"Culture Room","address":"3045 N Federal Hwy","city":"Ft Lauderdale","zip":"33306","latitude":26.1664922,"longitude":-80.1173489},{"title":"Little Women","created_by":"TicketMaster","category":"Arts & Theater","start_date":"2016-05-07T23:00:00.000Z","venue_name":"Abdo New River Room at the Broward Center","address":"201 SW 5th Avenue","city":"Ft Lauderdale","zip":"33312","latitude":25.7691704,"longitude":-80.1985539},{"title":"Diamond Minds Spring Showcase","created_by":"TicketMaster","category":"Family","start_date":"2016-05-08T02:00:00.000Z","venue_name":"Aventura Arts & Cultural Center","address":"3385 NE 188th Street","city":"Aventura","zip":"33180","latitude":25.9498962,"longitude":-80.1346305},{"title":"Florida Launch vs. New York Lizards","created_by":"TicketMaster","category":"Sports","start_date":"2016-05-08T05:00:00.000Z","venue_name":"FAU Stadium","address":"777 Glades Rd","city":"Boca Raton","zip":"33431","latitude":26.3705935,"longitude":-80.1033298},{"title":"Impractical Jokers \"Where's Larry\" Tour Starring The Tenderloins","created_by":"TicketMaster","category":"Arts & Theater","start_date":"2016-05-08T05:00:00.000Z","venue_name":"Au-Rene Theater at the Broward Center","address":"201 SW 5th Avenue","city":"Ft Lauderdale","zip":"33312","latitude":25.7691704,"longitude":-80.1985539},{"title":"Ekal Vidyalaya Foundation of USA presents \"Then and Now\"","created_by":"TicketMaster","category":"Music","start_date":"2016-05-08T05:30:00.000Z","venue_name":"Rose & Alfred Miniaci Performing Arts Center","address":"3100 Ray Ferrero Jr. Blvd.","city":"Ft Lauderdale","zip":"33314","latitude":27.6648274,"longitude":-81.5157535},{"title":"Little Women","created_by":"TicketMaster","category":"Arts & Theater","start_date":"2016-05-08T05:30:00.000Z","venue_name":"Abdo New River Room at the Broward Center","address":"201 SW 5th Avenue","city":"Ft Lauderdale","zip":"33312","latitude":25.7691704,"longitude":-80.1985539},{"title":"Zach Deputy","created_by":"TicketMaster","category":"Music","start_date":"2016-05-08T06:00:00.000Z","venue_name":"Culture Room","address":"3045 N Federal Hwy","city":"Ft Lauderdale","zip":"33306","latitude":26.1664922,"longitude":-80.1173489},{"title":"Impractical Jokers \"Where's Larry\" Tour Starring The Tenderloins","created_by":"TicketMaster","category":"Arts & Theater","start_date":"2016-05-08T08:00:00.000Z","venue_name":"Au-Rene Theater at the Broward Center","address":"201 SW 5th Avenue","city":"Ft Lauderdale","zip":"33312","latitude":25.7691704,"longitude":-80.1985539},{"title":"Little Women","created_by":"TicketMaster","category":"Arts & Theater","start_date":"2016-05-09T00:00:00.000Z","venue_name":"Abdo New River Room at the Broward Center","address":"201 SW 5th Avenue","city":"Ft Lauderdale","zip":"33312","latitude":25.7691704,"longitude":-80.1985539},{"title":"Women of Praise - Mother's Day Concert","created_by":"TicketMaster","category":"Music","start_date":"2016-05-09T03:00:00.000Z","venue_name":"BankUnited Center","address":"1245 Dauer Dr","city":"Coral Gables","zip":"33146","latitude":25.7154513,"longitude":-80.279248},{"title":"Cosmic Sounds of Druhpad: Gundecha Brothers","created_by":"TicketMaster","category":"Music","start_date":"2016-05-09T03:00:00.000Z","venue_name":"Rose Miniaci Arts Education Center JM Family Studio Theater","address":"201 SW 5th Avenue","city":"Fort Lauderdale","zip":"33312","latitude":25.7691704,"longitude":-80.1985539},{"title":"3rd Annual Mother's Day Experience with Kem and Kelly Price","created_by":"TicketMaster","category":"Music","start_date":"2016-05-09T05:00:00.000Z","venue_name":"James L Knight Center","address":"400 SE 2nd Ave","city":"Miami","zip":"33131","latitude":25.7709278,"longitude":-80.190901},{"title":"J Boog","created_by":"TicketMaster","category":"Music","start_date":"2016-05-09T05:30:00.000Z","venue_name":"Culture Room","address":"3045 N Federal Hwy","city":"Ft Lauderdale","zip":"33306","latitude":26.1664922,"longitude":-80.1173489},{"title":"The Front Bottoms","created_by":"TicketMaster","category":"Music","start_date":"2016-05-11T04:30:00.000Z","venue_name":"Revolution Live","address":"100 SW 3rd Ave","city":"Ft Lauderdale","zip":"33312","latitude":26.1211947,"longitude":-80.1463248},{"title":"The Sword","created_by":"TicketMaster","category":"Music","start_date":"2016-05-11T05:00:00.000Z","venue_name":"Culture Room","address":"3045 N Federal Hwy","city":"Ft Lauderdale","zip":"33306","latitude":26.1664922,"longitude":-80.1173489},{"title":"Hard Rock Live Presents George Benson and Boney James","created_by":"TicketMaster","category":"Music","start_date":"2016-05-11T06:00:00.000Z","venue_name":"Hard Rock Live","address":"5747 Seminole Way","city":"Hollywood","zip":"33314","latitude":27.8410282,"longitude":-82.8317046},{"title":"Beautiful: The Carole King Musical","created_by":"TicketMaster","category":"Arts & Theater","start_date":"2016-05-11T06:00:00.000Z","venue_name":"Au-Rene Theater at the Broward Center","address":"201 SW 5th Avenue","city":"Ft Lauderdale","zip":"33312","latitude":25.7691704,"longitude":-80.1985539},{"title":"Flatbush Zombies","created_by":"TicketMaster","category":"Music","start_date":"2016-05-12T05:00:00.000Z","venue_name":"Revolution Live","address":"100 SW 3rd Ave","city":"Ft Lauderdale","zip":"33312","latitude":26.1211947,"longitude":-80.1463248},{"title":"A Subtle Bent On Deconstruction By Cliff Burgess","created_by":"TicketMaster","category":"Arts & Theater","start_date":"2016-05-12T05:30:00.000Z","venue_name":"FAU - Theatre Lab in the Parliament Hall","address":"777 Glades Rd","city":"Boca Raton","zip":"33431","latitude":26.3705935,"longitude":-80.1033298},{"title":"Gold Coast Jazz: Giacomo Gates & The Gold Coast Jazz Society Band Trio","created_by":"TicketMaster","category":"Music","start_date":"2016-05-12T05:45:00.000Z","venue_name":"Amaturo Theater at Broward Center","address":"201 SW 5th Avenue","city":"Ft Lauderdale","zip":"33312","latitude":25.7691704,"longitude":-80.1985539},{"title":"The 1975","created_by":"TicketMaster","category":"Music","start_date":"2016-05-12T06:00:00.000Z","venue_name":"Bayfront Park Amphitheater","address":"301 N Biscayne Blvd","city":"Miami","zip":"33132","latitude":25.7709193,"longitude":-80.1888017},{"title":"Beautiful: The Carole King Musical","created_by":"TicketMaster","category":"Arts & Theater","start_date":"2016-05-12T06:00:00.000Z","venue_name":"Au-Rene Theater at the Broward Center","address":"201 SW 5th Avenue","city":"Ft Lauderdale","zip":"33312","latitude":25.7691704,"longitude":-80.1985539},{"title":"Rupaul's Drag Race: Battle Of The Seasons","created_by":"TicketMaster","category":"Arts & Theater","start_date":"2016-05-12T07:00:00.000Z","venue_name":"Parker Playhouse","address":"707 NE 8th Street","city":"Ft Lauderdale","zip":"33304","latitude":25.4772813,"longitude":-80.46792169999999},{"title":"Spin Moves by Ken Weitzman","created_by":"TicketMaster","category":"Arts & Theater","start_date":"2016-05-13T05:30:00.000Z","venue_name":"FAU - Theatre Lab in the Parliament Hall","address":"777 Glades Rd","city":"Boca Raton","zip":"33431","latitude":26.3705935,"longitude":-80.1033298},{"title":"KPD'S Miami Lisbon Exchange","created_by":"TicketMaster","category":"Arts & Theater","start_date":"2016-05-13T06:00:00.000Z","venue_name":"Miami Dade County Auditorium On.Stage Black Box","address":"2901 W Flagler Street","city":"Miami","zip":"33135","latitude":25.7730493,"longitude":-80.241148},{"title":"Beautiful: The Carole King Musical","created_by":"TicketMaster","category":"Arts & Theater","start_date":"2016-05-13T06:00:00.000Z","venue_name":"Au-Rene Theater at the Broward Center","address":"201 SW 5th Avenue","city":"Ft Lauderdale","zip":"33312","latitude":25.7691704,"longitude":-80.1985539},{"title":"Mushroomhead & (Hed) P.E.","created_by":"TicketMaster","category":"Music","start_date":"2016-05-14T05:30:00.000Z","venue_name":"Culture Room","address":"3045 N Federal Hwy","city":"Ft Lauderdale","zip":"33306","latitude":26.1664922,"longitude":-80.1173489},{"title":"Deftones","created_by":"TicketMaster","category":"Music","start_date":"2016-05-14T05:30:00.000Z","venue_name":"Pompano Beach Amphitheater","address":"1801 NE 6th Street","city":"Pompano Beach","zip":"33060","latitude":26.2381066,"longitude":-80.1052394},{"title":"Florence and the Machine: How Beautiful Tour","created_by":"TicketMaster","category":"Music","start_date":"2016-05-14T05:30:00.000Z","venue_name":"AmericanAirlines Arena","address":"601 Biscayne Blvd","city":"Miami","zip":"33132","latitude":25.7813496,"longitude":-80.1874406},{"title":"Sing the Body Electric by Michael Hollinger","created_by":"TicketMaster","category":"Arts & Theater","start_date":"2016-05-14T05:30:00.000Z","venue_name":"FAU - Theatre Lab in the Parliament Hall","address":"777 Glades Rd","city":"Boca Raton","zip":"33431","latitude":26.3705935,"longitude":-80.1033298},{"title":"Girl Choir of South Florida: Harmony and Discord","created_by":"TicketMaster","category":"Arts & Theater","start_date":"2016-05-14T06:00:00.000Z","venue_name":"Amaturo Theater at Broward Center","address":"201 SW 5th Avenue","city":"Ft Lauderdale","zip":"33312","latitude":25.7691704,"longitude":-80.1985539},{"title":"Beautiful: The Carole King Musical","created_by":"TicketMaster","category":"Arts & Theater","start_date":"2016-05-14T06:00:00.000Z","venue_name":"Au-Rene Theater at the Broward Center","address":"201 SW 5th Avenue","city":"Ft Lauderdale","zip":"33312","latitude":25.7691704,"longitude":-80.1985539},{"title":"KPD'S Miami Lisbon Exchange","created_by":"TicketMaster","category":"Arts & Theater","start_date":"2016-05-14T06:00:00.000Z","venue_name":"Miami Dade County Auditorium On.Stage Black Box","address":"2901 W Flagler Street","city":"Miami","zip":"33135","latitude":25.7730493,"longitude":-80.241148},{"title":"Shankar, Ehsaan, And Loy","created_by":"TicketMaster","category":"Music","start_date":"2016-05-14T06:30:00.000Z","venue_name":"War Memorial Auditorium","address":"800 NE 8th Street","city":"Ft Lauderdale","zip":"33304","latitude":25.4771625,"longitude":-80.4668531},{"title":"Broadway Workshop for Students: Beautiful The Carole King Musical","created_by":"TicketMaster","category":"Miscellaneous","start_date":"2016-05-14T21:30:00.000Z","venue_name":"Rose Miniaci Arts Education Center JM Family Studio Theater","address":"201 SW 5th Avenue","city":"Fort Lauderdale","zip":"33312","latitude":25.7691704,"longitude":-80.1985539},{"title":"Reconciliados - 2 Day Event","created_by":"TicketMaster","category":"Miscellaneous","start_date":"2016-05-13T10:00:00.000Z","venue_name":"James L Knight Center","address":"400 SE 2nd Ave","city":"Miami","zip":"33131","latitude":25.7709278,"longitude":-80.190901},{"title":"Beautiful: The Carole King Musical","created_by":"TicketMaster","category":"Arts & Theater","start_date":"2016-05-15T00:00:00.000Z","venue_name":"Au-Rene Theater at the Broward Center","address":"201 SW 5th Avenue","city":"Ft Lauderdale","zip":"33312","latitude":25.7691704,"longitude":-80.1985539},{"title":"22 Seconds by Michele Lowe","created_by":"TicketMaster","category":"Arts & Theater","start_date":"2016-05-15T01:00:00.000Z","venue_name":"FAU - Theatre Lab in the Parliament Hall","address":"777 Glades Rd","city":"Boca Raton","zip":"33431","latitude":26.3705935,"longitude":-80.1033298},{"title":"Enuff Z Nuff","created_by":"TicketMaster","category":"Music","start_date":"2016-05-15T05:00:00.000Z","venue_name":"Vixens Club","address":"3050 Burris Rd","city":"Davie","zip":"33314","latitude":26.083262,"longitude":-80.206189},{"title":"Arts Ballet Theatre: Spring Gala","created_by":"TicketMaster","category":"Arts & Theater","start_date":"2016-05-15T05:00:00.000Z","venue_name":"Aventura Arts & Cultural Center","address":"3385 NE 188th Street","city":"Aventura","zip":"33180","latitude":25.9498962,"longitude":-80.1346305},{"title":"The Three Sisters of Weehawkin by Deborah Zoe Laufer","created_by":"TicketMaster","category":"Arts & Theater","start_date":"2016-05-15T05:30:00.000Z","venue_name":"FAU - Theatre Lab in the Parliament Hall","address":"777 Glades Rd","city":"Boca Raton","zip":"33431","latitude":26.3705935,"longitude":-80.1033298},{"title":"South Florida JAZZ: Kurt Rosenwinkel Quartet","created_by":"TicketMaster","category":"Music","start_date":"2016-05-15T06:00:00.000Z","venue_name":"Rose & Alfred Miniaci Performing Arts Center","address":"3100 Ray Ferrero Jr. Blvd.","city":"Ft Lauderdale","zip":"33314","latitude":27.6648274,"longitude":-81.5157535},{"title":"Giada Valenti: From Venice With Love","created_by":"TicketMaster","category":"Music","start_date":"2016-05-15T06:00:00.000Z","venue_name":"Parker Playhouse","address":"707 NE 8th Street","city":"Ft Lauderdale","zip":"33304","latitude":25.4772813,"longitude":-80.46792169999999},{"title":"Beautiful: The Carole King Musical","created_by":"TicketMaster","category":"Arts & Theater","start_date":"2016-05-15T06:00:00.000Z","venue_name":"Au-Rene Theater at the Broward Center","address":"201 SW 5th Avenue","city":"Ft Lauderdale","zip":"33312","latitude":25.7691704,"longitude":-80.1985539},{"title":"Young Musicians Unite Annual Spring Concert","created_by":"TicketMaster","category":"Music","start_date":"2016-05-15T06:00:00.000Z","venue_name":"The Gleason Room - Backstage at the Fillmore Miami Beach","address":"1700 Washington Avenue","city":"Miami Beach","zip":"33139","latitude":25.7929317,"longitude":-80.1332492},{"title":"Charlie Zaa En Concierto Tour Mi Mejor Regalo","created_by":"TicketMaster","category":"Music","start_date":"2016-05-15T06:00:00.000Z","venue_name":"Miami Dade County Auditorium","address":"2901 W. Flagler Street","city":"Miami","zip":"33135","latitude":25.7730493,"longitude":-80.241148},{"title":"Fonseca","created_by":"TicketMaster","category":"Music","start_date":"2016-05-15T06:00:00.000Z","venue_name":"The Fillmore Miami Beach at Jackie Gleason Theater","address":"1700 Washington Ave","city":"Miami Beach","zip":"33139","latitude":25.7929317,"longitude":-80.1332492},{"title":"Beautiful: The Carole King Musical","created_by":"TicketMaster","category":"Arts & Theater","start_date":"2016-05-15T23:00:00.000Z","venue_name":"Au-Rene Theater at the Broward Center","address":"201 SW 5th Avenue","city":"Ft Lauderdale","zip":"33312","latitude":25.7691704,"longitude":-80.1985539},{"title":"The Day Before Yesterday by Israel Horovitz","created_by":"TicketMaster","category":"Arts & Theater","start_date":"2016-05-16T00:00:00.000Z","venue_name":"FAU - Studio One","address":"777 Glades Road","city":"Boca Raton","zip":"33431","latitude":26.3705935,"longitude":-80.1033298},{"title":"American Girl Fashion Show","created_by":"TicketMaster","category":"Arts & Theater","start_date":"2016-05-16T00:00:00.000Z","venue_name":"Aventura Arts & Cultural Center","address":"3385 NE 188th Street","city":"Aventura","zip":"33180","latitude":25.9498962,"longitude":-80.1346305},{"title":"Arts Ballet Theatre of Florida: Spring Gala","created_by":"TicketMaster","category":"Arts & Theater","start_date":"2016-05-16T03:00:00.000Z","venue_name":"Amaturo Theater at Broward Center","address":"201 SW 5th Avenue","city":"Ft Lauderdale","zip":"33312","latitude":25.7691704,"longitude":-80.1985539},{"title":"Sueños \"An Exile Journey\"","created_by":"TicketMaster","category":"Arts & Theater","start_date":"2016-05-16T03:00:00.000Z","venue_name":"Miami Dade County Auditorium","address":"2901 W. Flagler Street","city":"Miami","zip":"33135","latitude":25.7730493,"longitude":-80.241148},{"title":"Gin Blossoms With Tonic And Dishwalla","created_by":"TicketMaster","category":"Music","start_date":"2016-05-16T04:00:00.000Z","venue_name":"Pompano Beach Amphitheater","address":"1801 NE 6th Street","city":"Pompano Beach","zip":"33060","latitude":26.2381066,"longitude":-80.1052394},{"title":"Beautiful: The Carole King Musical","created_by":"TicketMaster","category":"Arts & Theater","start_date":"2016-05-16T04:30:00.000Z","venue_name":"Au-Rene Theater at the Broward Center","address":"201 SW 5th Avenue","city":"Ft Lauderdale","zip":"33312","latitude":25.7691704,"longitude":-80.1985539},{"title":"Apocalyptica - Shadowmaker Tour","created_by":"TicketMaster","category":"Music","start_date":"2016-05-16T05:30:00.000Z","venue_name":"Culture Room","address":"3045 N Federal Hwy","city":"Ft Lauderdale","zip":"33306","latitude":26.1664922,"longitude":-80.1173489},{"title":"Michel Boujenah","created_by":"TicketMaster","category":"Arts & Theater","start_date":"2016-05-16T06:00:00.000Z","venue_name":"The Gleason Room - Backstage at the Fillmore Miami Beach","address":"1700 Washington Avenue","city":"Miami Beach","zip":"33139","latitude":25.7929317,"longitude":-80.1332492},{"title":"Born of Osiris - Sumerian Records 10 Year Tour","created_by":"TicketMaster","category":"Music","start_date":"2016-05-17T04:30:00.000Z","venue_name":"Culture Room","address":"3045 N Federal Hwy","city":"Ft Lauderdale","zip":"33306","latitude":26.1664922,"longitude":-80.1173489},{"title":"The Struts","created_by":"TicketMaster","category":"Music","start_date":"2016-05-18T05:30:00.000Z","venue_name":"Culture Room","address":"3045 N Federal Hwy","city":"Ft Lauderdale","zip":"33306","latitude":26.1664922,"longitude":-80.1173489},{"title":"Beautiful: The Carole King Musical","created_by":"TicketMaster","category":"Arts & Theater","start_date":"2016-05-18T06:00:00.000Z","venue_name":"Au-Rene Theater at the Broward Center","address":"201 SW 5th Avenue","city":"Ft Lauderdale","zip":"33312","latitude":25.7691704,"longitude":-80.1985539},{"title":"Beautiful: The Carole King Musical","created_by":"TicketMaster","category":"Arts & Theater","start_date":"2016-05-19T00:00:00.000Z","venue_name":"Au-Rene Theater at the Broward Center","address":"201 SW 5th Avenue","city":"Ft Lauderdale","zip":"33312","latitude":25.7691704,"longitude":-80.1985539},{"title":"STRFKR / Com Truise","created_by":"TicketMaster","category":"Music","start_date":"2016-05-19T05:30:00.000Z","venue_name":"Culture Room","address":"3045 N Federal Hwy","city":"Ft Lauderdale","zip":"33306","latitude":26.1664922,"longitude":-80.1173489},{"title":"Beautiful: The Carole King Musical","created_by":"TicketMaster","category":"Arts & Theater","start_date":"2016-05-19T06:00:00.000Z","venue_name":"Au-Rene Theater at the Broward Center","address":"201 SW 5th Avenue","city":"Ft Lauderdale","zip":"33312","latitude":25.7691704,"longitude":-80.1985539},{"title":"Miike Snow","created_by":"TicketMaster","category":"Music","start_date":"2016-05-19T08:00:00.000Z","venue_name":"Faena Theater","address":"3201 Collins Ave","city":"Miami Beach","zip":"33140","latitude":25.8073645,"longitude":-80.12341579999999},{"title":"Florida Panthers","created_by":"TicketMaster","category":"Sports","start_date":"2016-05-19T10:00:00.000Z","venue_name":"BB&T Center","address":"1 Panther Parkway","city":"Sunrise","zip":"33323","latitude":26.158469,"longitude":-80.32555119999999},{"title":"Beautiful: The Carole King Musical","created_by":"TicketMaster","category":"Arts & Theater","start_date":"2016-05-20T06:00:00.000Z","venue_name":"Au-Rene Theater at the Broward Center","address":"201 SW 5th Avenue","city":"Ft Lauderdale","zip":"33312","latitude":25.7691704,"longitude":-80.1985539},{"title":"Marlon Wayans - Scandal-less","created_by":"TicketMaster","category":"Arts & Theater","start_date":"2016-05-20T06:30:00.000Z","venue_name":"The Fillmore Miami Beach at Jackie Gleason Theater","address":"1700 Washington Ave","city":"Miami Beach","zip":"33139","latitude":25.7929317,"longitude":-80.1332492},{"title":"Florida Panthers","created_by":"TicketMaster","category":"Sports","start_date":"2016-05-20T10:00:00.000Z","venue_name":"BB&T Center","address":"1 Panther Parkway","city":"Sunrise","zip":"33323","latitude":26.158469,"longitude":-80.32555119999999},{"title":"#DebateBroward presents Eunoia","created_by":"TicketMaster","category":"Miscellaneous","start_date":"2016-05-21T04:30:00.000Z","venue_name":"Amaturo Theater at Broward Center","address":"201 SW 5th Avenue","city":"Ft Lauderdale","zip":"33312","latitude":25.7691704,"longitude":-80.1985539},{"title":"Legends Of The Old School w/ Bel Biv Devoe, Lisa Lisa, Tone Loc & More","created_by":"TicketMaster","category":"Music","start_date":"2016-05-21T05:00:00.000Z","venue_name":"Mizner Park Amphitheater","address":"590 Plaza Real","city":"Boca Raton","zip":"33432","latitude":26.3565532,"longitude":-80.0849841},{"title":"Dope Entertainment Presents: Jacquees 'mood' Tour","created_by":"TicketMaster","category":"Music","start_date":"2016-05-21T05:00:00.000Z","venue_name":"THE HANGAR","address":"2235 Northwest 2nd Avenue","city":"Miami","zip":"33127","latitude":25.7987636,"longitude":-80.1988174},{"title":"Dick Dale","created_by":"TicketMaster","category":"Music","start_date":"2016-05-21T05:30:00.000Z","venue_name":"Culture Room","address":"3045 N Federal Hwy","city":"Ft Lauderdale","zip":"33306","latitude":26.1664922,"longitude":-80.1173489},{"title":"FlamenGO: La Flaka \"Capricho\" - Flamenco Fusion From Spain","created_by":"TicketMaster","category":"Arts & Theater","start_date":"2016-05-21T06:00:00.000Z","venue_name":"Miami Dade County Auditorium","address":"2901 W. Flagler Street","city":"Miami","zip":"33135","latitude":25.7730493,"longitude":-80.241148},{"title":"Pink Talking Fish","created_by":"TicketMaster","category":"Music","start_date":"2016-05-21T06:00:00.000Z","venue_name":"Revolution Live","address":"100 SW 3rd Ave","city":"Ft Lauderdale","zip":"33312","latitude":26.1211947,"longitude":-80.1463248},{"title":"Beautiful: The Carole King Musical","created_by":"TicketMaster","category":"Arts & Theater","start_date":"2016-05-21T06:00:00.000Z","venue_name":"Au-Rene Theater at the Broward Center","address":"201 SW 5th Avenue","city":"Ft Lauderdale","zip":"33312","latitude":25.7691704,"longitude":-80.1985539},{"title":"Florida Panthers","created_by":"TicketMaster","category":"Sports","start_date":"2016-05-21T10:00:00.000Z","venue_name":"BB&T Center","address":"1 Panther Parkway","city":"Sunrise","zip":"33323","latitude":26.158469,"longitude":-80.32555119999999},{"title":"Broadway Kids Studio's Annual Showcase \"Wonderland\"","created_by":"TicketMaster","category":"Family","start_date":"2016-05-21T23:00:00.000Z","venue_name":"Rose & Alfred Miniaci Performing Arts Center","address":"3100 Ray Ferrero Jr. Blvd.","city":"Ft Lauderdale","zip":"33314","latitude":27.6648274,"longitude":-81.5157535},{"title":"Beautiful: The Carole King Musical","created_by":"TicketMaster","category":"Arts & Theater","start_date":"2016-05-22T00:00:00.000Z","venue_name":"Au-Rene Theater at the Broward Center","address":"201 SW 5th Avenue","city":"Ft Lauderdale","zip":"33312","latitude":25.7691704,"longitude":-80.1985539},{"title":"Millencolin","created_by":"TicketMaster","category":"Music","start_date":"2016-05-22T05:00:00.000Z","venue_name":"Revolution Live","address":"100 SW 3rd Ave","city":"Ft Lauderdale","zip":"33312","latitude":26.1211947,"longitude":-80.1463248},{"title":"Broadway Kids Studio's Annual Showcase \"Wonderland\"","created_by":"TicketMaster","category":"Family","start_date":"2016-05-22T05:00:00.000Z","venue_name":"Rose & Alfred Miniaci Performing Arts Center","address":"3100 Ray Ferrero Jr. Blvd.","city":"Ft Lauderdale","zip":"33314","latitude":27.6648274,"longitude":-81.5157535},{"title":"Florida Launch vs. Atlanta Blaze","created_by":"TicketMaster","category":"Sports","start_date":"2016-05-22T05:00:00.000Z","venue_name":"FAU Stadium","address":"777 Glades Rd","city":"Boca Raton","zip":"33431","latitude":26.3705935,"longitude":-80.1033298},{"title":"Tracy Morgan","created_by":"TicketMaster","category":"Arts & Theater","start_date":"2016-05-22T06:00:00.000Z","venue_name":"Hard Rock Live","address":"5747 Seminole Way","city":"Hollywood","zip":"33314","latitude":27.8410282,"longitude":-82.8317046},{"title":"Beautiful: The Carole King Musical","created_by":"TicketMaster","category":"Arts & Theater","start_date":"2016-05-22T06:00:00.000Z","venue_name":"Au-Rene Theater at the Broward Center","address":"201 SW 5th Avenue","city":"Ft Lauderdale","zip":"33312","latitude":25.7691704,"longitude":-80.1985539},{"title":"Boogie Nights - A Night At Studio 54","created_by":"TicketMaster","category":"Music","start_date":"2016-05-22T06:00:00.000Z","venue_name":"Boca Raton Resort & Club","address":"501 E Camino Real","city":"Boca Raton","zip":"33432","latitude":26.3427923,"longitude":-80.0782366},{"title":"Angeles- Primer Concierto en Miami","created_by":"TicketMaster","category":"Music","start_date":"2016-05-22T07:00:00.000Z","venue_name":"Miami Dade County Auditorium","address":"2901 W. Flagler Street","city":"Miami","zip":"33135","latitude":25.7730493,"longitude":-80.241148},{"title":"Zhu","created_by":"TicketMaster","category":"Music","start_date":"2016-05-22T07:00:00.000Z","venue_name":"The Fillmore Miami Beach at Jackie Gleason Theater","address":"1700 Washington Ave","city":"Miami Beach","zip":"33139","latitude":25.7929317,"longitude":-80.1332492},{"title":"Florida Panthers","created_by":"TicketMaster","category":"Sports","start_date":"2016-05-22T10:00:00.000Z","venue_name":"BB&T Center","address":"1 Panther Parkway","city":"Sunrise","zip":"33323","latitude":26.158469,"longitude":-80.32555119999999},{"title":"Broadway Kids Studio's Private Lesson Showcase 2016","created_by":"TicketMaster","category":"Family","start_date":"2016-05-22T20:00:00.000Z","venue_name":"Rose & Alfred Miniaci Performing Arts Center","address":"3100 Ray Ferrero Jr. Blvd.","city":"Ft Lauderdale","zip":"33314","latitude":27.6648274,"longitude":-81.5157535},{"title":"Broadway Kids Studio's Private Lesson Showcase 2016","created_by":"TicketMaster","category":"Family","start_date":"2016-05-22T23:00:00.000Z","venue_name":"Rose & Alfred Miniaci Performing Arts Center","address":"3100 Ray Ferrero Jr. Blvd.","city":"Ft Lauderdale","zip":"33314","latitude":27.6648274,"longitude":-81.5157535},{"title":"Beautiful: The Carole King Musical","created_by":"TicketMaster","category":"Arts & Theater","start_date":"2016-05-22T23:00:00.000Z","venue_name":"Au-Rene Theater at the Broward Center","address":"201 SW 5th Avenue","city":"Ft Lauderdale","zip":"33312","latitude":25.7691704,"longitude":-80.1985539},{"title":"Tri Rail's Senior Stars 2016","created_by":"TicketMaster","category":"Miscellaneous","start_date":"2016-05-23T00:00:00.000Z","venue_name":"Parker Playhouse","address":"707 NE 8th Street","city":"Ft Lauderdale","zip":"33304","latitude":25.4772813,"longitude":-80.46792169999999},{"title":"MDCA & HALT Present Lyric Scenes. Opera, Operetta, Zarzuela","created_by":"TicketMaster","category":"Arts & Theater","start_date":"2016-05-23T01:00:00.000Z","venue_name":"Miami Dade County Auditorium On.Stage Black Box","address":"2901 W Flagler Street","city":"Miami","zip":"33135","latitude":25.7730493,"longitude":-80.241148},{"title":"Univeral Dance Studios presents: Welcome to Wonderland","created_by":"TicketMaster","category":"Arts & Theater","start_date":"2016-05-23T04:00:00.000Z","venue_name":"Aventura Arts & Cultural Center","address":"3385 NE 188th Street","city":"Aventura","zip":"33180","latitude":25.9498962,"longitude":-80.1346305},{"title":"Florida Panthers vs. New York Islanders","created_by":"TicketMaster","category":"Sports","start_date":"2016-05-23T10:00:00.000Z","venue_name":"BB&T Center","address":"1 Panther Parkway","city":"Sunrise","zip":"33323","latitude":26.158469,"longitude":-80.32555119999999},{"title":"Florida Panthers","created_by":"TicketMaster","category":"Sports","start_date":"2016-05-24T10:00:00.000Z","venue_name":"BB&T Center","address":"1 Panther Parkway","city":"Sunrise","zip":"33323","latitude":26.158469,"longitude":-80.32555119999999},{"title":"Florida Panthers","created_by":"TicketMaster","category":"Sports","start_date":"2016-05-25T10:00:00.000Z","venue_name":"BB&T Center","address":"1 Panther Parkway","city":"Sunrise","zip":"33323","latitude":26.158469,"longitude":-80.32555119999999},{"title":"Hate Eternal","created_by":"TicketMaster","category":"Music","start_date":"2016-05-26T05:30:00.000Z","venue_name":"Culture Room","address":"3045 N Federal Hwy","city":"Ft Lauderdale","zip":"33306","latitude":26.1664922,"longitude":-80.1173489},{"title":"Magic Man & The Griswolds","created_by":"TicketMaster","category":"Music","start_date":"2016-05-27T05:00:00.000Z","venue_name":"Culture Room","address":"3045 N Federal Hwy","city":"Ft Lauderdale","zip":"33306","latitude":26.1664922,"longitude":-80.1173489},{"title":"Miguel","created_by":"TicketMaster","category":"Music","start_date":"2016-05-28T08:00:00.000Z","venue_name":"Faena Theater","address":"3201 Collins Ave","city":"Miami Beach","zip":"33140","latitude":25.8073645,"longitude":-80.12341579999999},{"title":"2016 NPC Florida Muscle Classic All-Day Pass","created_by":"TicketMaster","category":"Miscellaneous","start_date":"2016-05-28T19:00:00.000Z","venue_name":"FAU - Carole & Barry Kaye Performing Arts Auditorium","address":"777 Glades Road","city":"Boca Raton","zip":"33431","latitude":26.3705935,"longitude":-80.1033298},{"title":"2016 NPC Florida Muscle Classic Prejudging","created_by":"TicketMaster","category":"Miscellaneous","start_date":"2016-05-28T19:00:00.000Z","venue_name":"FAU - Carole & Barry Kaye Performing Arts Auditorium","address":"777 Glades Road","city":"Boca Raton","zip":"33431","latitude":26.3705935,"longitude":-80.1033298},{"title":"Buckethead","created_by":"TicketMaster","category":"Music","start_date":"2016-05-29T06:00:00.000Z","venue_name":"Culture Room","address":"3045 N Federal Hwy","city":"Ft Lauderdale","zip":"33306","latitude":26.1664922,"longitude":-80.1173489},{"title":"R. Kelly: The Buffet Tour 2016","created_by":"TicketMaster","category":"Music","start_date":"2016-05-29T06:00:00.000Z","venue_name":"AmericanAirlines Arena","address":"601 Biscayne Blvd","city":"Miami","zip":"33132","latitude":25.7813496,"longitude":-80.1874406},{"title":"Young the Giant","created_by":"TicketMaster","category":"Music","start_date":"2016-05-30T00:00:00.000Z","venue_name":"Revolution Live","address":"100 SW 3rd Ave","city":"Ft Lauderdale","zip":"33312","latitude":26.1211947,"longitude":-80.1463248},{"title":"Israeli Dance Festival: Celebrating 20 Years","created_by":"TicketMaster","category":"Arts & Theater","start_date":"2016-05-30T05:00:00.000Z","venue_name":"Au-Rene Theater at the Broward Center","address":"201 SW 5th Avenue","city":"Ft Lauderdale","zip":"33312","latitude":25.7691704,"longitude":-80.1985539},{"title":"One Hell of a Night with Joe Walsh & Bad Company","created_by":"TicketMaster","category":"Music","start_date":"2016-05-30T05:00:00.000Z","venue_name":"Perfect Vodka Amphitheatre at the S. Florida Fairgrounds ","address":"601-7 Sansburys Way","city":"West Palm Beach","zip":"33411","latitude":26.685477,"longitude":-80.186736},{"title":"Premier Parking: Joe Walsh & Bad Co May 29, 2016","created_by":"TicketMaster","category":"Miscellaneous","start_date":"2016-05-30T05:01:00.000Z","venue_name":"Perfect Vodka Amphitheatre at the S. Florida Fairgrounds ","address":"601-7 Sansburys Way","city":"West Palm Beach","zip":"33411","latitude":26.685477,"longitude":-80.186736},{"title":"9th Annual Memorial Wkd Comedy Festival 2016","created_by":"TicketMaster","category":"Arts & Theater","start_date":"2016-05-30T06:00:00.000Z","venue_name":"James L Knight Center","address":"400 SE 2nd Ave","city":"Miami","zip":"33131","latitude":25.7709278,"longitude":-80.190901},{"title":"Improv Acting 1 - Basic Scenework","created_by":"TicketMaster","category":"Arts & Theater","start_date":"2016-05-31T05:30:00.000Z","venue_name":"Just the Funny","address":"3119 Coral Way","city":"Miami","zip":"33145","latitude":25.7504165,"longitude":-80.244412},{"title":"2016 Season Tickets Onsale Now","created_by":"TicketMaster","category":"Music","start_date":"2016-05-31T10:00:00.000Z","venue_name":"Perfect Vodka Amphitheatre at the S. Florida Fairgrounds ","address":"601-7 Sansburys Way","city":"West Palm Beach","zip":"33411","latitude":26.685477,"longitude":-80.186736},{"title":"2016 Season Tickets Onsale Now","created_by":"TicketMaster","category":"Music","start_date":"2016-05-31T10:00:00.000Z","venue_name":"Mizner Park Amphitheater","address":"590 Plaza Real","city":"Boca Raton","zip":"33432","latitude":26.3565532,"longitude":-80.0849841},{"title":"2016 Season Tickets Onsale Now","created_by":"TicketMaster","category":"Music","start_date":"2016-05-31T10:00:00.000Z","venue_name":"Bayfront Park Amphitheater","address":"301 N Biscayne Blvd","city":"Miami","zip":"33132","latitude":25.7709193,"longitude":-80.1888017},{"title":"Premier Boxing Champions","created_by":"TicketMaster","category":"Sports","start_date":"2016-06-04T05:00:00.000Z","venue_name":"Hard Rock Live","address":"5747 Seminole Way","city":"Hollywood","zip":"33314","latitude":27.8410282,"longitude":-82.8317046},{"title":"Ellie Goulding","created_by":"TicketMaster","category":"Music","start_date":"2016-06-04T05:00:00.000Z","venue_name":"AmericanAirlines Arena","address":"601 Biscayne Blvd","city":"Miami","zip":"33132","latitude":25.7813496,"longitude":-80.1874406},{"title":"South Florida Pride Wind Ensemble: Leaving On A Jet Plane","created_by":"TicketMaster","category":"Arts & Theater","start_date":"2016-06-04T06:00:00.000Z","venue_name":"Amaturo Theater at Broward Center","address":"201 SW 5th Avenue","city":"Ft Lauderdale","zip":"33312","latitude":25.7691704,"longitude":-80.1985539},{"title":"Ha*Ash","created_by":"TicketMaster","category":"Music","start_date":"2016-06-04T06:00:00.000Z","venue_name":"The Fillmore Miami Beach at Jackie Gleason Theater","address":"1700 Washington Ave","city":"Miami Beach","zip":"33139","latitude":25.7929317,"longitude":-80.1332492},{"title":"Dance Dimensions: Something Big!","created_by":"TicketMaster","category":"Arts & Theater","start_date":"2016-06-04T22:00:00.000Z","venue_name":"Amaturo Theater at Broward Center","address":"201 SW 5th Avenue","city":"Ft Lauderdale","zip":"33312","latitude":25.7691704,"longitude":-80.1985539},{"title":"Dance Dimensions: Something Big!","created_by":"TicketMaster","category":"Arts & Theater","start_date":"2016-06-05T03:30:00.000Z","venue_name":"Amaturo Theater at Broward Center","address":"201 SW 5th Avenue","city":"Ft Lauderdale","zip":"33312","latitude":25.7691704,"longitude":-80.1985539},{"title":"Young Contemporary Dance Theatre","created_by":"TicketMaster","category":"Arts & Theater","start_date":"2016-06-05T04:00:00.000Z","venue_name":"The Fillmore Miami Beach at Jackie Gleason Theater","address":"1700 Washington Ave","city":"Miami Beach","zip":"33139","latitude":25.7929317,"longitude":-80.1332492},{"title":"Gold Coast Derby Grrls","created_by":"TicketMaster","category":"Sports","start_date":"2016-06-05T04:00:00.000Z","venue_name":"War Memorial Auditorium","address":"800 NE 8th Street","city":"Ft Lauderdale","zip":"33304","latitude":25.4771625,"longitude":-80.4668531},{"title":"Darius Rucker Good For A Good Time Tour","created_by":"TicketMaster","category":"Music","start_date":"2016-06-05T05:00:00.000Z","venue_name":"Perfect Vodka Amphitheatre at the S. Florida Fairgrounds ","address":"601-7 Sansburys Way","city":"West Palm Beach","zip":"33411","latitude":26.685477,"longitude":-80.186736},{"title":"Emblem3 - Waking Up Tour","created_by":"TicketMaster","category":"Music","start_date":"2016-06-05T05:00:00.000Z","venue_name":"Revolution Live","address":"100 SW 3rd Ave","city":"Ft Lauderdale","zip":"33312","latitude":26.1211947,"longitude":-80.1463248},{"title":"Genitorturers","created_by":"TicketMaster","category":"Music","start_date":"2016-06-05T05:00:00.000Z","venue_name":"Vixens Club","address":"3050 Burris Rd","city":"Davie","zip":"33314","latitude":26.083262,"longitude":-80.206189},{"title":"Premier Parking: Darius Rucker June 4, 2016","created_by":"TicketMaster","category":"Miscellaneous","start_date":"2016-06-05T05:01:00.000Z","venue_name":"Perfect Vodka Amphitheatre at the S. Florida Fairgrounds ","address":"601-7 Sansburys Way","city":"West Palm Beach","zip":"33411","latitude":26.685477,"longitude":-80.186736},{"title":"Weird Al Yankovic","created_by":"TicketMaster","category":"Arts & Theater","start_date":"2016-06-05T06:00:00.000Z","venue_name":"Kravis Center","address":"701 Okeechobee Blvd.","city":"West Palm Beach","zip":"33401","latitude":26.706871,"longitude":-80.0611},{"title":"Dance Dimensions: Something Big!","created_by":"TicketMaster","category":"Arts & Theater","start_date":"2016-06-05T22:00:00.000Z","venue_name":"Amaturo Theater at Broward Center","address":"201 SW 5th Avenue","city":"Ft Lauderdale","zip":"33312","latitude":25.7691704,"longitude":-80.1985539},{"title":"Gigi D'alessio","created_by":"TicketMaster","category":"Music","start_date":"2016-06-07T06:00:00.000Z","venue_name":"The Fillmore Miami Beach at Jackie Gleason Theater","address":"1700 Washington Ave","city":"Miami Beach","zip":"33139","latitude":25.7929317,"longitude":-80.1332492},{"title":"Refused","created_by":"TicketMaster","category":"Music","start_date":"2016-06-09T05:00:00.000Z","venue_name":"Revolution Live","address":"100 SW 3rd Ave","city":"Ft Lauderdale","zip":"33312","latitude":26.1211947,"longitude":-80.1463248},{"title":"Jason Bonham's Led Zeppelin Experience","created_by":"TicketMaster","category":"Music","start_date":"2016-06-09T06:00:00.000Z","venue_name":"Hard Rock Live","address":"5747 Seminole Way","city":"Hollywood","zip":"33314","latitude":27.8410282,"longitude":-82.8317046},{"title":"X Ambassadors - The VHS Tour 2.0","created_by":"TicketMaster","category":"Music","start_date":"2016-06-10T04:30:00.000Z","venue_name":"Revolution Live","address":"100 SW 3rd Ave","city":"Ft Lauderdale","zip":"33312","latitude":26.1211947,"longitude":-80.1463248},{"title":"Slow Burn Theatre Company: Heathers the Musical","created_by":"TicketMaster","category":"Arts & Theater","start_date":"2016-06-10T05:30:00.000Z","venue_name":"Amaturo Theater at Broward Center","address":"201 SW 5th Avenue","city":"Ft Lauderdale","zip":"33312","latitude":25.7691704,"longitude":-80.1985539},{"title":"Hay Fever by Noel Coward","created_by":"TicketMaster","category":"Arts & Theater","start_date":"2016-06-11T05:00:00.000Z","venue_name":"FAU - Studio One","address":"777 Glades Road","city":"Boca Raton","zip":"33431","latitude":26.3705935,"longitude":-80.1033298},{"title":"VOUS Conference 2016 hosted by VOUS Church","created_by":"TicketMaster","category":"Miscellaneous","start_date":"2016-06-11T05:00:00.000Z","venue_name":"The Fillmore Miami Beach at Jackie Gleason Theater","address":"1700 Washington Ave","city":"Miami Beach","zip":"33139","latitude":25.7929317,"longitude":-80.1332492},{"title":"Slow Burn Theatre Company: Heathers the Musical","created_by":"TicketMaster","category":"Arts & Theater","start_date":"2016-06-11T05:30:00.000Z","venue_name":"Amaturo Theater at Broward Center","address":"201 SW 5th Avenue","city":"Ft Lauderdale","zip":"33312","latitude":25.7691704,"longitude":-80.1985539},{"title":"Gogol Bordello","created_by":"TicketMaster","category":"Music","start_date":"2016-06-11T05:30:00.000Z","venue_name":"Revolution Live","address":"100 SW 3rd Ave","city":"Ft Lauderdale","zip":"33312","latitude":26.1211947,"longitude":-80.1463248},{"title":"Hay Fever by Noel Coward","created_by":"TicketMaster","category":"Arts & Theater","start_date":"2016-06-12T00:00:00.000Z","venue_name":"FAU - Studio One","address":"777 Glades Road","city":"Boca Raton","zip":"33431","latitude":26.3705935,"longitude":-80.1033298},{"title":"Premier Parking: Journey June 11, 2016","created_by":"TicketMaster","category":"Miscellaneous","start_date":"2016-06-12T02:00:00.000Z","venue_name":"Perfect Vodka Amphitheatre at the S. Florida Fairgrounds ","address":"601-7 Sansburys Way","city":"West Palm Beach","zip":"33411","latitude":26.685477,"longitude":-80.186736},{"title":"Journey & The Doobie Brothers with special guest Dave Mason","created_by":"TicketMaster","category":"Music","start_date":"2016-06-12T05:00:00.000Z","venue_name":"Perfect Vodka Amphitheatre at the S. Florida Fairgrounds ","address":"601-7 Sansburys Way","city":"West Palm Beach","zip":"33411","latitude":26.685477,"longitude":-80.186736},{"title":"Hay Fever by Noel Coward","created_by":"TicketMaster","category":"Arts & Theater","start_date":"2016-06-12T05:00:00.000Z","venue_name":"FAU - Studio One","address":"777 Glades Road","city":"Boca Raton","zip":"33431","latitude":26.3705935,"longitude":-80.1033298},{"title":"Dave Mason - Upgrade Meet & Greet Packages","created_by":"TicketMaster","category":"Music","start_date":"2016-06-12T05:01:00.000Z","venue_name":"Perfect Vodka Amphitheatre at the S. Florida Fairgrounds ","address":"601-7 Sansburys Way","city":"West Palm Beach","zip":"33411","latitude":26.685477,"longitude":-80.186736},{"title":"Selena Gomez","created_by":"TicketMaster","category":"Music","start_date":"2016-06-12T05:30:00.000Z","venue_name":"AmericanAirlines Arena","address":"601 Biscayne Blvd","city":"Miami","zip":"33132","latitude":25.7813496,"longitude":-80.1874406},{"title":"Slow Burn Theatre Company: Heathers the Musical","created_by":"TicketMaster","category":"Arts & Theater","start_date":"2016-06-12T05:30:00.000Z","venue_name":"Amaturo Theater at Broward Center","address":"201 SW 5th Avenue","city":"Ft Lauderdale","zip":"33312","latitude":25.7691704,"longitude":-80.1985539},{"title":"Florida Launch vs. Denver Outlaws","created_by":"TicketMaster","category":"Sports","start_date":"2016-06-12T05:30:00.000Z","venue_name":"FAU Stadium","address":"777 Glades Rd","city":"Boca Raton","zip":"33431","latitude":26.3705935,"longitude":-80.1033298},{"title":"Tommy James and the Shondells","created_by":"TicketMaster","category":"Music","start_date":"2016-06-12T06:00:00.000Z","venue_name":"Pompano Beach Amphitheater","address":"1801 NE 6th Street","city":"Pompano Beach","zip":"33060","latitude":26.2381066,"longitude":-80.1052394},{"title":"South Florida Jazz: Steve Turre Sextet","created_by":"TicketMaster","category":"Music","start_date":"2016-06-12T06:00:00.000Z","venue_name":"Rose & Alfred Miniaci Performing Arts Center","address":"3100 Ray Ferrero Jr. Blvd.","city":"Ft Lauderdale","zip":"33314","latitude":27.6648274,"longitude":-81.5157535},{"title":"Slow Burn Theatre Company: Heathers the Musical","created_by":"TicketMaster","category":"Arts & Theater","start_date":"2016-06-13T00:00:00.000Z","venue_name":"Amaturo Theater at Broward Center","address":"201 SW 5th Avenue","city":"Ft Lauderdale","zip":"33312","latitude":25.7691704,"longitude":-80.1985539},{"title":"Hay Fever by Noel Coward","created_by":"TicketMaster","category":"Arts & Theater","start_date":"2016-06-13T00:00:00.000Z","venue_name":"FAU - Studio One","address":"777 Glades Road","city":"Boca Raton","zip":"33431","latitude":26.3705935,"longitude":-80.1033298},{"title":"Kidz Bop","created_by":"TicketMaster","category":"Music","start_date":"2016-06-13T01:00:00.000Z","venue_name":"Parker Playhouse","address":"707 NE 8th Street","city":"Ft Lauderdale","zip":"33304","latitude":25.4772813,"longitude":-80.46792169999999},{"title":"Weezer and Panic! At The Disco - Summer Tour 2016","created_by":"TicketMaster","category":"Music","start_date":"2016-06-15T05:00:00.000Z","venue_name":"Bayfront Park Amphitheater","address":"301 N Biscayne Blvd","city":"Miami","zip":"33132","latitude":25.7709193,"longitude":-80.1888017},{"title":"St. Lucia","created_by":"TicketMaster","category":"Music","start_date":"2016-06-15T05:30:00.000Z","venue_name":"Culture Room","address":"3045 N Federal Hwy","city":"Ft Lauderdale","zip":"33306","latitude":26.1664922,"longitude":-80.1173489},{"title":"NETworks presents Disney's Beauty and the Beast","created_by":"TicketMaster","category":"Arts & Theater","start_date":"2016-06-16T06:00:00.000Z","venue_name":"Au-Rene Theater at the Broward Center","address":"201 SW 5th Avenue","city":"Ft Lauderdale","zip":"33312","latitude":25.7691704,"longitude":-80.1985539},{"title":"Lord Huron","created_by":"TicketMaster","category":"Music","start_date":"2016-06-16T06:30:00.000Z","venue_name":"The Fillmore Miami Beach at Jackie Gleason Theater","address":"1700 Washington Ave","city":"Miami Beach","zip":"33139","latitude":25.7929317,"longitude":-80.1332492},{"title":"Slow Burn Theatre Company: Heathers the Musical","created_by":"TicketMaster","category":"Arts & Theater","start_date":"2016-06-17T05:30:00.000Z","venue_name":"Amaturo Theater at Broward Center","address":"201 SW 5th Avenue","city":"Ft Lauderdale","zip":"33312","latitude":25.7691704,"longitude":-80.1985539},{"title":"Rooms: a rock romance","created_by":"TicketMaster","category":"Arts & Theater","start_date":"2016-06-17T06:00:00.000Z","venue_name":"Abdo New River Room at the Broward Center","address":"201 SW 5th Avenue","city":"Ft Lauderdale","zip":"33312","latitude":25.7691704,"longitude":-80.1985539},{"title":"NETworks presents Disney's Beauty and the Beast","created_by":"TicketMaster","category":"Arts & Theater","start_date":"2016-06-17T06:00:00.000Z","venue_name":"Au-Rene Theater at the Broward Center","address":"201 SW 5th Avenue","city":"Ft Lauderdale","zip":"33312","latitude":25.7691704,"longitude":-80.1985539},{"title":"Out In The Tropics 2016 - Toshi Reagon and BIGLovely in concert","created_by":"TicketMaster","category":"Arts & Theater","start_date":"2016-06-17T06:00:00.000Z","venue_name":"The Gleason Room - Backstage at the Fillmore Miami Beach","address":"1700 Washington Avenue","city":"Miami Beach","zip":"33139","latitude":25.7929317,"longitude":-80.1332492},{"title":"Hay Fever by Noel Coward","created_by":"TicketMaster","category":"Arts & Theater","start_date":"2016-06-18T05:00:00.000Z","venue_name":"FAU - Studio One","address":"777 Glades Road","city":"Boca Raton","zip":"33431","latitude":26.3705935,"longitude":-80.1033298},{"title":"Slow Burn Theatre Company: Heathers the Musical","created_by":"TicketMaster","category":"Arts & Theater","start_date":"2016-06-18T05:30:00.000Z","venue_name":"Amaturo Theater at Broward Center","address":"201 SW 5th Avenue","city":"Ft Lauderdale","zip":"33312","latitude":25.7691704,"longitude":-80.1985539},{"title":"Rooms: a rock romance","created_by":"TicketMaster","category":"Arts & Theater","start_date":"2016-06-18T06:00:00.000Z","venue_name":"Abdo New River Room at the Broward Center","address":"201 SW 5th Avenue","city":"Ft Lauderdale","zip":"33312","latitude":25.7691704,"longitude":-80.1985539},{"title":"NETworks presents Disney's Beauty and the Beast","created_by":"TicketMaster","category":"Arts & Theater","start_date":"2016-06-18T06:00:00.000Z","venue_name":"Au-Rene Theater at the Broward Center","address":"201 SW 5th Avenue","city":"Ft Lauderdale","zip":"33312","latitude":25.7691704,"longitude":-80.1985539},{"title":"Out In The Tropics 2016 - La Otra Voz, by La Saraghina de Stalker","created_by":"TicketMaster","category":"Arts & Theater","start_date":"2016-06-18T06:00:00.000Z","venue_name":"The Gleason Room - Backstage at the Fillmore Miami Beach","address":"1700 Washington Avenue","city":"Miami Beach","zip":"33139","latitude":25.7929317,"longitude":-80.1332492},{"title":"NETworks presents Disney's Beauty and the Beast","created_by":"TicketMaster","category":"Arts & Theater","start_date":"2016-06-18T21:00:00.000Z","venue_name":"Au-Rene Theater at the Broward Center","address":"201 SW 5th Avenue","city":"Ft Lauderdale","zip":"33312","latitude":25.7691704,"longitude":-80.1985539},{"title":"Hay Fever by Noel Coward","created_by":"TicketMaster","category":"Arts & Theater","start_date":"2016-06-19T00:00:00.000Z","venue_name":"FAU - Studio One","address":"777 Glades Road","city":"Boca Raton","zip":"33431","latitude":26.3705935,"longitude":-80.1033298},{"title":"Rooms: a rock romance","created_by":"TicketMaster","category":"Arts & Theater","start_date":"2016-06-19T00:00:00.000Z","venue_name":"Abdo New River Room at the Broward Center","address":"201 SW 5th Avenue","city":"Ft Lauderdale","zip":"33312","latitude":25.7691704,"longitude":-80.1985539}]